[
  {
    "address": "г.Майкоп, Хакурате, 654 ",
    "latitude": 44.62423,
    "longtitude": 40.05552,
    "name": "01023",
    "country": "RU",
    "phone": "(8772) 53-46-05",
    "region": "Республика Адыгея"
  },
  {
    "address": "г.Майкоп, Батарейная, 385 А",
    "latitude": 44.57913,
    "longtitude": 40.1366,
    "name": "01024",
    "country": "RU",
    "phone": "(8772) 56-38-20",
    "region": "Республика Адыгея"
  },
  {
    "address": "г.Майкоп, Келермесское ш., 5",
    "latitude": 44.62882,
    "longtitude": 40.11182,
    "name": "01025",
    "country": "RU",
    "phone": "(8772) 53-98-80",
    "region": "Республика Адыгея"
  },
  {
    "address": "г.Майкоп, Хакурате,194",
    "latitude": 44.61678,
    "longtitude": 40.11558,
    "name": "01026",
    "country": "RU",
    "phone": "(8772) 54-88-75",
    "region": "Республика Адыгея"
  },
  {
    "address": "г.Майкоп, ул.Шоссейная, квартал 407",
    "latitude": 44.5678,
    "longtitude": 40.13962,
    "name": "01027",
    "country": "RU",
    "phone": "(8772) 54-00-61",
    "region": "Республика Адыгея"
  },
  {
    "address": "с. Красногвардейское, ул. Фестивальная, 3",
    "latitude": 45.14407,
    "longtitude": 39.60295,
    "name": "01028",
    "country": "RU",
    "phone": "(87778) 5-21-54",
    "region": "Республика Адыгея"
  },
  {
    "address": "ст. Дондуковская, Желзнодорожная, 18, Гиагинский р-н",
    "latitude": 44.9034,
    "longtitude": 40.3543,
    "name": "01030",
    "country": "RU",
    "phone": "8 (918) 092-28-79",
    "region": "Республика Адыгея"
  },
  {
    "address": "ст. Кужорская на трассе Майкоп-Лабинск",
    "latitude": 44.64818,
    "longtitude": 40.2921,
    "name": "01031",
    "country": "RU",
    "phone": "8 (918) 247-94-88",
    "region": "Республика Адыгея"
  },
  {
    "address": "п. Каменномостский, ул. Мира, 1",
    "latitude": 44.3025,
    "longtitude": 40.18855,
    "name": "01032",
    "country": "RU",
    "phone": "(87777) 5-31-41",
    "region": "Республика Адыгея"
  },
  {
    "address": "а.Кошехабль, ул.Дружбы народов, 84, Кошехабльский р-н",
    "latitude": 44.90218,
    "longtitude": 40.47625,
    "name": "01033",
    "country": "RU",
    "phone": "8 (918) 092-33-98",
    "region": "Республика Адыгея"
  },
  {
    "address": "1353 км трассы Москва-Новороссийск, участок Краснодар-Джубга, справа, г.Адыгейск, 16 км от поворота на г.Краснодар",
    "latitude": 44.89548,
    "longtitude": 39.16577,
    "name": "01034",
    "country": "RU",
    "phone": "(861) 240-80-98",
    "region": "Республика Адыгея"
  },
  {
    "address": "п.Энем на трассе Краснодар-Новороссийск , справа при движении от г.Новороссийск",
    "latitude": 44.90862,
    "longtitude": 38.8825,
    "name": "01035",
    "country": "RU",
    "phone": "(861)-240-80-82",
    "region": "Республика Адыгея"
  },
  {
    "address": "п. Энем на трассе Краснодар - Новороссийск ",
    "latitude": 44.94992,
    "longtitude": 38.92487,
    "name": "01109",
    "country": "RU",
    "phone": "(861) 240-90-07",
    "region": "Республика Адыгея"
  },
  {
    "address": "п. Яблоновский, Тургеневское шоссе 32, трасса Краснодар Новороссийск, слева напротив, торгового центра Мега",
    "latitude": 45.00765,
    "longtitude": 38.93187,
    "name": "01155",
    "country": "RU",
    "phone": "8 (861) 240-80-99",
    "region": "Республика Адыгея"
  },
  {
    "address": "Теучежский район, А/М Дон, справа км 1347-450м",
    "latitude": 44.94397,
    "longtitude": 39.12667,
    "name": "01159",
    "country": "RU",
    "phone": "89882454086",
    "region": "Республика Адыгея"
  },
  {
    "address": "г. Майкоп, ул. Подлесная,25",
    "latitude": 44.58963,
    "longtitude": 40.09867,
    "name": "01183",
    "country": "RU",
    "phone": "(8772)521815",
    "region": "Республика Адыгея"
  },
  {
    "address": "Теучежский район, с. Красная, вдоль а/д «Энем-Адыгейск-Бжедугхабль» км 54+00 (справа)",
    "latitude": 44.8749,
    "longtitude": 39.452,
    "name": "01190",
    "country": "RU",
    "phone": "89882454367",
    "region": "Республика Адыгея"
  },
  {
    "address": "а/д Майкоп - Усть-Лабинск, км 53 + 120, слева, аул Бжедугхабль",
    "latitude": 44.981465,
    "longtitude": 39.717984,
    "name": "01199",
    "country": "RU",
    "phone": "8 (988) 381-50-88",
    "region": "Республика Адыгея"
  },
  {
    "address": "ст. Ханская, а/д Белореченск-Майкоп, справа при въезде со стороны Белореченска",
    "latitude": 44.69379,
    "longtitude": 39.94462,
    "name": "01207",
    "country": "RU",
    "phone": "8 (988) 381-50-70",
    "region": "Республика Адыгея"
  },
  {
    "address": "Тахтамукайский районн, Автотрасса А-146 1-3 км. Справа",
    "latitude": 44.947908,
    "longtitude": 39.033946,
    "name": "01263",
    "country": "RU",
    "phone": "8 (989) 858-67-02",
    "region": "Республика Адыгея"
  },
  {
    "address": "Тахтамукайский районн, a. Новая Адыгея, ул. Тургеневское шоссе 1/3",
    "latitude": 45.02735,
    "longtitude": 38.94479,
    "name": "01266",
    "country": "RU",
    "phone": "8 (87771) 4-69-13",
    "region": "Республика Адыгея"
  },
  {
    "address": "с. Уптино, 1448 км трассы М5",
    "latitude": 54.656971,
    "longtitude": 55.697422,
    "name": "02003 АЗС 3",
    "country": "RU",
    "phone": "8-901-811-30-16",
    "region": "Республика Башкортостан"
  },
  {
    "address": "д. Березовка, ул. Аэропорт, 1/4",
    "latitude": 54.567136,
    "longtitude": 55.887933,
    "name": "02004 АЗС 4",
    "country": "RU",
    "phone": "(347)279-50-69",
    "region": "Республика Башкортостан"
  },
  {
    "address": "г. Уфа, ул. С.Перовской, 30",
    "latitude": 54.698926,
    "longtitude": 55.984407,
    "name": "02005 АЗС 5",
    "country": "RU",
    "phone": "(347) 289-55-59",
    "region": "Республика Башкортостан"
  },
  {
    "address": "г. Октябрьский, пр. Ленина, 3а (29 микрорайон)",
    "latitude": 54.482061,
    "longtitude": 53.507675,
    "name": "02006 АЗС 6",
    "country": "RU",
    "phone": "(34767)  4-02-92",
    "region": "Республика Башкортостан"
  },
  {
    "address": "п. Верхнеяркеево, ул. Бакалинская, 6",
    "latitude": 55.439112,
    "longtitude": 54.301589,
    "name": "02007 АЗС 7",
    "country": "RU",
    "phone": "(34762) 5-11-23",
    "region": "Республика Башкортостан"
  },
  {
    "address": "г. Белебей, 1316 км трассы М5, пер. Туймазы-Белебей",
    "latitude": 54.485791,
    "longtitude": 53.900706,
    "name": "02008 АЗС 8",
    "country": "RU",
    "phone": "8-901-811-83-98",
    "region": "Республика Башкортостан"
  },
  {
    "address": "д. Тюменяк, ул. Клубная, 2/1",
    "latitude": 54.683635,
    "longtitude": 53.790832,
    "name": "02010 АЗС 10",
    "country": "RU",
    "phone": "(347 82) 3-33-81",
    "region": "Республика Башкортостан"
  },
  {
    "address": "г. Уфа, пр. Октября, 1",
    "latitude": 54.739865,
    "longtitude": 55.984005,
    "name": "02012 АЗС 12",
    "country": "RU",
    "phone": "(347) 223-14-87",
    "region": "Республика Башкортостан"
  },
  {
    "address": "г. Уфа, ул. Донского, 8",
    "latitude": 54.825019,
    "longtitude": 56.096454,
    "name": "02013 АЗС 13",
    "country": "RU",
    "phone": "(347) 2 64-52-27",
    "region": "Республика Башкортостан"
  },
  {
    "address": "г. Мелеуз, ул. Береговая, 28",
    "latitude": 52.96326058,
    "longtitude": 55.950231,
    "name": "02016 АЗС 16",
    "country": "RU",
    "phone": "(34764) 4-08-30",
    "region": "Республика Башкортостан"
  },
  {
    "address": "п. Дюртюли, ул. Садовая, 4",
    "latitude": 55.497479204,
    "longtitude": 54.85497235,
    "name": "02017 АЗС 17",
    "country": "RU",
    "phone": "(34717)  3-20-50",
    "region": "Республика Башкортостан"
  },
  {
    "address": "г. Туймазы, ул. Салавата Юлаева, 2",
    "latitude": 54.615423,
    "longtitude": 53.689622,
    "name": "02018 АЗС 18",
    "country": "RU",
    "phone": "(34782)  7-69-74",
    "region": "Республика Башкортостан"
  },
  {
    "address": "п. Зирган, ул. Революционеров, 147-149",
    "latitude": 53.23178679,
    "longtitude": 55.91041088,
    "name": "02019 АЗС 19",
    "country": "RU",
    "phone": "(34764) 6-13-00",
    "region": "Республика Башкортостан"
  },
  {
    "address": "г. Нефтекамск, ул. Энергетиков, 2",
    "latitude": 56.102853,
    "longtitude": 54.24154,
    "name": "02020 АЗС 20",
    "country": "RU",
    "phone": "(34783)  5-60-67 ",
    "region": "Республика Башкортостан"
  },
  {
    "address": "п. Витаминный, ул. Энергетиков, 2",
    "latitude": 55.283802,
    "longtitude": 58.118528,
    "name": "02021 АЗС 21",
    "country": "RU",
    "phone": "(34777) 2-84-69",
    "region": "Республика Башкортостан"
  },
  {
    "address": "п. Кушнаренково, ул. Большевистская, 61.",
    "latitude": 55.1009168855,
    "longtitude": 55.332593813,
    "name": "02022 АЗС 22",
    "country": "RU",
    "phone": "(34780)5-81-97",
    "region": "Республика Башкортостан"
  },
  {
    "address": "г. Туймазы, ул. Гафурова, 41",
    "latitude": 54.598687,
    "longtitude": 53.730693,
    "name": "02023 АЗС 23",
    "country": "RU",
    "phone": "(34782) 2-41-40",
    "region": "Республика Башкортостан"
  },
  {
    "address": "г. Белебей, шоссе Нефтяников, 5",
    "latitude": 54.112898,
    "longtitude": 54.073247,
    "name": "02024 АЗС 24",
    "country": "RU",
    "phone": "(34786) 4-07-05",
    "region": "Республика Башкортостан"
  },
  {
    "address": "г. Уфа, 30 км трассы Уфа-Бирск",
    "latitude": 54.936616,
    "longtitude": 56.080302,
    "name": "02025 АЗС 25",
    "country": "RU",
    "phone": "(347)274-42-96",
    "region": "Республика Башкортостан"
  },
  {
    "address": "г. Нефтекамск, ул. Карла Маркса, 13",
    "latitude": 56.080382,
    "longtitude": 54.238791,
    "name": "02027 АЗС 27",
    "country": "RU",
    "phone": "(34783) 4-72-77 ",
    "region": "Республика Башкортостан"
  },
  {
    "address": "Пос. Биладжари, шоссе Баку-Сумгаит",
    "latitude": 40.433521,
    "longtitude": 49.784396,
    "name": "AZS 4А",
    "country": "AZ",
    "phone": "-",
    "region": "Баку"
  },
  {
    "address": "г. Стерлитамак, ул. Профсоюзная, 26",
    "latitude": 53.649679,
    "longtitude": 55.9795,
    "name": "02030 АЗС 30",
    "country": "RU",
    "phone": "(3473) 28-19-58",
    "region": "Республика Башкортостан"
  },
  {
    "address": "п. Улу-Теляк, 1548 км трассы М6 (Иглинский р-н)",
    "latitude": 54.854221,
    "longtitude": 57.130257,
    "name": "02031 АЗС 31",
    "country": "RU",
    "phone": "8-917-752-60-08",
    "region": "Республика Башкортостан"
  },
  {
    "address": "с. Бакалы, ул. Мостовая, 12",
    "latitude": 55.17360867,
    "longtitude": 53.80947946,
    "name": "02032 АЗС 32",
    "country": "RU",
    "phone": "(34742)  2-26-46",
    "region": "Республика Башкортостан"
  },
  {
    "address": "г. Уфа, ул. Правды",
    "latitude": 54.703951,
    "longtitude": 55.847105,
    "name": "02033 АЗС 33",
    "country": "RU",
    "phone": "(347)281-37-85",
    "region": "Республика Башкортостан"
  },
  {
    "address": "г. Белебей, 1350 км трассы М5 Москва-Самара-Уфа-Челябинск",
    "latitude": 54.588101,
    "longtitude": 54.268204,
    "name": "02035 АЗС 35",
    "country": "RU",
    "phone": "08 (347) 5035",
    "region": "Республика Башкортостан"
  },
  {
    "address": "п. Красноусольский, 3-й км Красноусольск-Табынск",
    "latitude": 53.9331,
    "longtitude": 56.419901,
    "name": "02041 АЗС 41",
    "country": "RU",
    "phone": "8-901-811-83-68",
    "region": "Республика Башкортостан"
  },
  {
    "address": "п. Удельных Дуваней, на въезде",
    "latitude": 55.176743,
    "longtitude": 55.853284,
    "name": "02042 АЗС 42",
    "country": "RU",
    "phone": "8-901-811-83-95",
    "region": "Республика Башкортостан"
  },
  {
    "address": "г. Стерлитамак, ул. Салтыкова-Щедрина, 2в",
    "latitude": 53.622062,
    "longtitude": 55.932695,
    "name": "02050 АЗС 50",
    "country": "RU",
    "phone": "(34782)2-50-70",
    "region": "Республика Башкортостан"
  },
  {
    "address": "с. Верхние  Татышлы, ул. Центральная, 51",
    "latitude": 56.291630346,
    "longtitude": 55.832812373,
    "name": "02051 АЗС 51",
    "country": "RU",
    "phone": "8-927-33-555-25",
    "region": "Республика Башкортостан"
  },
  {
    "address": "г. Стерлитамак, Уфимский тракт, 8",
    "latitude": 53.68539368,
    "longtitude": 55.949297804,
    "name": "02057 АЗС 57-У",
    "country": "RU",
    "phone": "(34723) 21-56-73",
    "region": "Республика Башкортостан"
  },
  {
    "address": "г. Стерлитамак, ул. 23 Мая, 155а",
    "latitude": 53.61627548,
    "longtitude": 55.93199761,
    "name": "02058 АЗС 58-У",
    "country": "RU",
    "phone": "(34723) 25-23-74",
    "region": "Республика Башкортостан"
  },
  {
    "address": "г. Салават, ул. Чапаева, 42",
    "latitude": 53.379533,
    "longtitude": 55.937426,
    "name": "02069 АЗС 69",
    "country": "RU",
    "phone": "8-901-811-84-29",
    "region": "Республика Башкортостан"
  },
  {
    "address": "п. Алаторка, 1499 км трассы М5",
    "latitude": 54.762175,
    "longtitude": 56.395246,
    "name": "02073 АЗС а02073",
    "country": "RU",
    "phone": "8-901-812-044-7",
    "region": "Республика Башкортостан"
  },
  {
    "address": "г. Стерлитамак, ул. Техничникова, 2",
    "latitude": 53.66257546,
    "longtitude": 55.95002174,
    "name": "02074 АЗС 74-У",
    "country": "RU",
    "phone": "(3473) 43-65-16",
    "region": "Республика Башкортостан"
  },
  {
    "address": "г. Нефтекамск, ул. Автозаводская, 26",
    "latitude": 56.106744,
    "longtitude": 54.305773,
    "name": "02082 АЗС а0282-У",
    "country": "RU",
    "phone": "8-901-812-82-86",
    "region": "Республика Башкортостан"
  },
  {
    "address": "г. Стерлитамак, Стерлибашевский тракт, 30",
    "latitude": 53.601095536,
    "longtitude": 55.930621325,
    "name": "02083 АЗС 83-У",
    "country": "RU",
    "phone": "(347 3) 26-99-72",
    "region": "Республика Башкортостан"
  },
  {
    "address": "г. Учалы, на въезде",
    "latitude": 54.32963989,
    "longtitude": 59.36661844,
    "name": "02084 АЗС 84-У",
    "country": "RU",
    "phone": "(34791) 6-69-39",
    "region": "Республика Башкортостан"
  },
  {
    "address": "п. Акбердено, на въезде",
    "latitude": 54.607392,
    "longtitude": 56.184276,
    "name": "02092 АЗС 92-У",
    "country": "RU",
    "phone": "8-917-780-20-80",
    "region": "Республика Башкортостан"
  },
  {
    "address": "г. Салават, Северный въезд в город",
    "latitude": 53.41306619,
    "longtitude": 55.928694611,
    "name": "02094 АЗС 94",
    "country": "RU",
    "phone": "8-987-62-01-337",
    "region": "Республика Башкортостан"
  },
  {
    "address": "п. Рощенский, на въезде",
    "latitude": 53.753238359,
    "longtitude": 55.943285023,
    "name": "02095 АЗС 95",
    "country": "RU",
    "phone": "8-901-811-83-68",
    "region": "Республика Башкортостан"
  },
  {
    "address": "г. Уфа, ул. Гвардейская",
    "latitude": 54.7696,
    "longtitude": 56.23244,
    "name": "02096 АЗС 96",
    "country": "RU",
    "phone": "(34795)267-13-29",
    "region": "Республика Башкортостан"
  },
  {
    "address": "д. Карпова, Каменная переправа",
    "latitude": 54.65986,
    "longtitude": 56.082891,
    "name": "02097 АЗС 97",
    "country": "RU",
    "phone": "8-961-047-33-31",
    "region": "Республика Башкортостан"
  },
  {
    "address": "г. Уфа, ул. Сагита Агиша 2/1 ",
    "latitude": 54.726325,
    "longtitude": 55.991874,
    "name": "02098 АЗС 98",
    "country": "RU",
    "phone": "89174813333",
    "region": "Республика Башкортостан"
  },
  {
    "address": "г. Уфа, ул. Ферина, 2",
    "latitude": 54.796924,
    "longtitude": 56.13077,
    "name": "02127 АЗС 127",
    "country": "RU",
    "phone": "(347)239-73-84",
    "region": "Республика Башкортостан"
  },
  {
    "address": "г. Уфа, Индустриальное ш., 114/1",
    "latitude": 54.797961,
    "longtitude": 56.120165,
    "name": "02128 АЗС 128",
    "country": "RU",
    "phone": "(347) 239-01-11",
    "region": "Республика Башкортостан"
  },
  {
    "address": "г. Уфа, пересеч. ул.Шафиева и пр.Октября",
    "latitude": 54.761172,
    "longtitude": 56.01051,
    "name": "02129 АЗС 129",
    "country": "RU",
    "phone": "89174401599",
    "region": "Республика Башкортостан"
  },
  {
    "address": "г. Уфа, ул. Маршала Жукова, 27",
    "latitude": 54.770605,
    "longtitude": 56.056698,
    "name": "02130 АЗС 130",
    "country": "RU",
    "phone": "",
    "region": "Республика Башкортостан"
  },
  {
    "address": "г. Уфа, ул. Степана Кувыкина, 43",
    "latitude": 54.712109,
    "longtitude": 56.000423,
    "name": "02131 АЗС 131",
    "country": "RU",
    "phone": "(347)255-86-64",
    "region": "Республика Башкортостан"
  },
  {
    "address": "г. Уфа, ул. Комсомольская пер. с ул.Тихорецкой",
    "latitude": 54.751997,
    "longtitude": 56.006921,
    "name": "02132 АЗС 132",
    "country": "RU",
    "phone": "89378312080",
    "region": "Республика Башкортостан"
  },
  {
    "address": "п. Цветы Башкирии, 1466 км. Трасса М5",
    "latitude": 54.647224,
    "longtitude": 55.920133,
    "name": "02134 АЗС 134",
    "country": "RU",
    "phone": "89373003274",
    "region": "Республика Башкортостан"
  },
  {
    "address": "с. Чесноковка, ул. Аэропортная д.0",
    "latitude": 54.622518,
    "longtitude": 55.928006,
    "name": "02136 АЗС 136",
    "country": "RU",
    "phone": "(347)275-09-30",
    "region": "Республика Башкортостан"
  },
  {
    "address": "г. Уфа, Затонское шоссе",
    "latitude": 54.764519,
    "longtitude": 55.945809,
    "name": "02137 АЗС 137",
    "country": "RU",
    "phone": "",
    "region": "Республика Башкортостан"
  },
  {
    "address": "с. Иглино, ул. Горького, 16",
    "latitude": 54.824234,
    "longtitude": 56.391937,
    "name": "02199 АЗС 199",
    "country": "RU",
    "phone": "(347)295-232-66",
    "region": "Республика Башкортостан"
  },
  {
    "address": "г. Нальчик, ул. Тарчокова, 58а",
    "latitude": 43.48628,
    "longtitude": 43.57298,
    "name": "07080",
    "country": "RU",
    "phone": "8(9889302636",
    "region": "Кабардино-Балкарская республика"
  },
  {
    "address": "515 км трассы \"Кавказ\",  напротив АЗС №82",
    "latitude": 43.92635,
    "longtitude": 43.18253,
    "name": "07081",
    "country": "RU",
    "phone": "8(8652)916550",
    "region": "Кабардино-Балкарская республика"
  },
  {
    "address": "515 км трассы \"Кавказ\",  Зольский район, напротив АЗС №81",
    "latitude": 43.9267,
    "longtitude": 43.18425,
    "name": "07082",
    "country": "RU",
    "phone": "8(8652)468181",
    "region": "Кабардино-Балкарская республика"
  },
  {
    "address": "г. Нальчик, ул. Осетинская, 1",
    "latitude": 43.4795,
    "longtitude": 43.6263,
    "name": "07101",
    "country": "RU",
    "phone": "8(8662)772504",
    "region": "Кабардино-Балкарская республика"
  },
  {
    "address": "г. Прохладный, ул. Головко 104",
    "latitude": 43.75687,
    "longtitude": 44.02823,
    "name": "07158",
    "country": "RU",
    "phone": "88663144903",
    "region": "Кабардино-Балкарская республика"
  },
  {
    "address": "с. Чегем 2, ул. Баканское Шоссе, федеральная дорого \"Кавказ\" 442 км.+800 м.",
    "latitude": 43.577694,
    "longtitude": 43.582282,
    "name": "07165",
    "country": "RU",
    "phone": "8(988)9308053",
    "region": "Кабардино-Балкарская республика"
  },
  {
    "address": "г. Нальчик, ул. Кабардинская",
    "latitude": 43.50853,
    "longtitude": 43.64212,
    "name": "07173",
    "country": "RU",
    "phone": "988-930-27-86",
    "region": "Кабардино-Балкарская республика"
  },
  {
    "address": "г. Нальчик, ул. 2 Таманской дивизии",
    "latitude": 43.48425,
    "longtitude": 43.64503,
    "name": "07177",
    "country": "RU",
    "phone": "89889302763",
    "region": "Кабардино-Балкарская республика"
  },
  {
    "address": "Федеральная трасса кавказ 448 км, въезд со стороны г.Чегема",
    "latitude": 43.53273,
    "longtitude": 43.6054,
    "name": "07186",
    "country": "RU",
    "phone": "88662753900",
    "region": "Кабардино-Балкарская республика"
  },
  {
    "address": "г. Нарткала, Урванский р-н, ул. Красная, угол Тарчокова",
    "latitude": 43.53547,
    "longtitude": 43.84355,
    "name": "07198",
    "country": "RU",
    "phone": "866-35-2-81-19",
    "region": "Кабардино-Балкарская республика"
  },
  {
    "address": "г.Прохладный, улица Первомайская 3",
    "latitude": 43.76767,
    "longtitude": 44.03485,
    "name": "07205",
    "country": "RU",
    "phone": "86631-4-50-49",
    "region": "Кабардино-Балкарская республика"
  },
  {
    "address": "г.Терек, ул.Ленина, р-н Автовокзала",
    "latitude": 43.49231,
    "longtitude": 44.15092,
    "name": "07206",
    "country": "RU",
    "phone": "86632-4-11-28",
    "region": "Кабардино-Балкарская республика"
  },
  {
    "address": "село Анзорей, М-29, 643 км. (справа)",
    "latitude": 43.36316,
    "longtitude": 43.96803,
    "name": "07235",
    "country": "RU",
    "phone": "86639-9-52-27",
    "region": "Кабардино-Балкарская республика"
  },
  {
    "address": "г. Элиста, ул. Ленина, 270",
    "latitude": 46.31176,
    "longtitude": 44.293667,
    "name": "08540",
    "country": "RU",
    "phone": "8 (84722) 4-08-40, 4-08-39",
    "region": "Республика Калмыкия"
  },
  {
    "address": "г. Элиста, ул. Ленина, 199",
    "latitude": 46.313738,
    "longtitude": 44.22821,
    "name": "08541",
    "country": "RU",
    "phone": "8-918-349-0087",
    "region": "Республика Калмыкия"
  },
  {
    "address": "г. Элиста, Северная промышленная зона - 2, 29",
    "latitude": 46.337258,
    "longtitude": 44.259936,
    "name": "08542",
    "country": "RU",
    "phone": "8-918-349-0223",
    "region": "Республика Калмыкия"
  },
  {
    "address": "Республика Калмыкия, с. Кетченеры, 120-й км трассы Волгоград - Элиста, справа при движении от г. Волгоград.",
    "latitude": 47.29731,
    "longtitude": 44.57156,
    "name": "08543",
    "country": "RU",
    "phone": "8 (84735) 91694",
    "region": "Республика Калмыкия"
  },
  {
    "address": "Республика Калмыкия, с.Садовое, 90-й км трассы Волгоград - Элиста, справа при движении от Волгограда.",
    "latitude": 47.777005,
    "longtitude": 44.534272,
    "name": "08544",
    "country": "RU",
    "phone": "8 (84741) 21256",
    "region": "Республика Калмыкия"
  },
  {
    "address": "Республика Калмыкия, с. Малые Дербеты, 70-й км трассы Волгоград - Элиста, справа при движении от Волгограда/",
    "latitude": 47.983477,
    "longtitude": 44.697136,
    "name": "08545",
    "country": "RU",
    "phone": "8 (84734) 91399",
    "region": "Республика Калмыкия"
  },
  {
    "address": "г. Элиста, 316 км а/д Астрахань-Элиста-Ставрополь",
    "latitude": 46.285,
    "longtitude": 44.169853,
    "name": "08546",
    "country": "RU",
    "phone": "8-918-349-0435",
    "region": "Республика Калмыкия"
  },
  {
    "address": "г. Черкесск, ул. Гутякулова, 5",
    "latitude": 44.248708,
    "longtitude": 42.056251,
    "name": "09094",
    "country": "RU",
    "phone": "8(8782)211102",
    "region": "Карачаево-Черкесская республика"
  },
  {
    "address": "Аул Псыж, ул. Победы, 12, вьезд со стороны г.Невинномысска",
    "latitude": 44.21812,
    "longtitude": 42.01922,
    "name": "09114",
    "country": "RU",
    "phone": "8(87822)98995",
    "region": "Карачаево-Черкесская республика"
  },
  {
    "address": "г. Черкесск ул. Доватора, 71",
    "latitude": 44.20475,
    "longtitude": 42.05955,
    "name": "09117",
    "country": "RU",
    "phone": "87822-0-60-52",
    "region": "Карачаево-Черкесская республика"
  },
  {
    "address": "г. Черкесск, ул. Октябрьская, 87 - ул. Энгельса, 2",
    "latitude": 44.21537,
    "longtitude": 42.03585,
    "name": "09184",
    "country": "RU",
    "phone": "78782207776",
    "region": "Карачаево-Черкесская республика"
  },
  {
    "address": "г. Черкесск, ул. Набережная, 86",
    "latitude": 44.22922,
    "longtitude": 42.0637,
    "name": "09185",
    "country": "RU",
    "phone": "8 (8782) 28-13-10",
    "region": "Карачаево-Черкесская республика"
  },
  {
    "address": "г. Карачаевск, ул. Крымшамхалова, 21а",
    "latitude": 43.78585,
    "longtitude": 41.91158,
    "name": "09197",
    "country": "RU",
    "phone": "89897897674",
    "region": "Карачаево-Черкесская Республика"
  },
  {
    "address": "ст. Зеленчукская а/д Черкесск-Архыз 23+714 ",
    "latitude": 43.855175,
    "longtitude": 41.611987,
    "name": "09265",
    "country": "RU",
    "phone": "989-783-58-39, 87878-5-36-00",
    "region": "Карачаево-Черкесская Республика"
  },
  {
    "address": "г. Минск, ул. Лещинского, д.2",
    "latitude": 53.907319,
    "longtitude": 27.454727,
    "name": "1",
    "country": "BY",
    "phone": "(86392) 7-79-01",
    "region": "Ростовская область"
  },
  {
    "address": "Минская обл., Солигорский р-н, г. Солигорск, ул. Кольцевая, 1",
    "latitude": 52.794199,
    "longtitude": 27.516266,
    "name": "10",
    "country": "BY",
    "phone": "-",
    "region": "Минская область"
  },
  {
    "address": "Лахденпохский р-н., г. Лахденпохья, Ленинградское ш., д. 58 А (справа при движении от г. Сортавала в СПб)",
    "latitude": 61.51733,
    "longtitude": 30.142439,
    "name": "10004",
    "country": "RU",
    "phone": "88145022626",
    "region": "Республика Карелия"
  },
  {
    "address": "Сортавальский р-н., г. Сортавала, Выборгское ш., д. 28",
    "latitude": 61.69246,
    "longtitude": 30.67328,
    "name": "10010",
    "country": "RU",
    "phone": "88143047671",
    "region": "Республика Карелия"
  },
  {
    "address": "Петрозаводск, Лесной пр., 57",
    "latitude": 61.78408,
    "longtitude": 34.3026,
    "name": "10016",
    "country": "RU",
    "phone": "8 (8142) 72-51-29",
    "region": "Республика Карелия"
  },
  {
    "address": "Сортавальский р-н., п. Пуйккола, Сортавальское ш., трасса Сортавала-Вяртсиля",
    "latitude": 62.047945,
    "longtitude": 30.681598,
    "name": "10032",
    "country": "RU",
    "phone": "88143034540",
    "region": "Республика Карелия"
  },
  {
    "address": "Прионежский р-н, п. Новая Вилга, Пряжинское шоссе (на пересечении с а/м \"Кола\")",
    "latitude": 61.820778,
    "longtitude": 34.145612,
    "name": "10191",
    "country": "RU",
    "phone": "8-921-01-01-326",
    "region": "Республика Карелия"
  },
  {
    "address": "Петрозаводск, Лососинское ш., д. 48",
    "latitude": 61.76119,
    "longtitude": 34.30073,
    "name": "10199",
    "country": "RU",
    "phone": "88142564153",
    "region": "Республика Карелия"
  },
  {
    "address": "Петрозаводск,Шуйское шоссе, д. 3",
    "latitude": 61.80983,
    "longtitude": 34.288885,
    "name": "10242",
    "country": "RU",
    "phone": "'8 (8142) 56-90-55, 8 (8142) 56-96-63 '",
    "region": "Республика Карелия"
  },
  {
    "address": "Петрозаводск, ул. Правды, д. 23",
    "latitude": 61.775482,
    "longtitude": 34.393428,
    "name": "10243",
    "country": "RU",
    "phone": "88142573518",
    "region": "Республика Карелия"
  },
  {
    "address": "г. Сегежа, ул. Северная",
    "latitude": 63.740245,
    "longtitude": 34.3016,
    "name": "10256",
    "country": "RU",
    "phone": "89212240982",
    "region": "Республика Карелия"
  },
  {
    "address": " п. Ново-Талицы, 153км, автодорога Иваново-Тейково, у поста ГИБДД",
    "latitude": 57.007237,
    "longtitude": 40.851961,
    "name": "10 НП",
    "country": "RU",
    "phone": "(930) 355-50-76",
    "region": "Ивановская область"
  },
  {
    "address": "Брестская обл., Брестский р-н, М1, 25-й км, 2",
    "latitude": 52.122855,
    "longtitude": 23.886779,
    "name": "11",
    "country": "BY",
    "phone": "-",
    "region": "Брестская область"
  },
  {
    "address": "г. Сыктывкар, ул. Гаражная, 1/2",
    "latitude": 61.65783,
    "longtitude": 50.81146,
    "name": "11301",
    "country": "RU",
    "phone": "(8212) 29-36-28",
    "region": "Республика Коми"
  },
  {
    "address": "г. Воркута, ул. Бульвар Пищевиков 3 Б",
    "latitude": 67.49325,
    "longtitude": 64.0629,
    "name": "11303",
    "country": "RU",
    "phone": "(82151) 4-17-93; (82151) 7-26-34",
    "region": "Республика Коми"
  },
  {
    "address": "84 км трассы Сыктывкар – Киров, справа при движении от г. Сыктывкара, около с. Визинга, ул. Оплеснина, 49",
    "latitude": 61.06287,
    "longtitude": 50.09697,
    "name": "11304",
    "country": "RU",
    "phone": "(82131) 9-14-69",
    "region": "Республика Коми"
  },
  {
    "address": "180 км трассы Сыктывкар – Киров, справа при движении от г.Сыктывкара, около с.Объячево",
    "latitude": 60.3284,
    "longtitude": 49.64257,
    "name": "11305",
    "country": "RU",
    "phone": "(82133) 2-13-53",
    "region": "Республика Коми"
  },
  {
    "address": "г. Инта, ул. Мартовская",
    "latitude": 66.037124,
    "longtitude": 60.146293,
    "name": "11306",
    "country": "RU",
    "phone": "8 (82145) 6-52-00",
    "region": "Республика Коми"
  },
  {
    "address": "г. Троицко-Печорск, с левой стороны на въезде в город",
    "latitude": 62.7216,
    "longtitude": 56.14333,
    "name": "11307",
    "country": "RU",
    "phone": "(82138) 9-74-91",
    "region": "Республика Коми"
  },
  {
    "address": "108 км трассы Ухта – Троицко-Печорск, справа при движении от г. Ухты, на въезде в с. Вой-Вож",
    "latitude": 62.89638,
    "longtitude": 54.95062,
    "name": "11308",
    "country": "RU",
    "phone": "9129660728",
    "region": "Республика Коми"
  },
  {
    "address": "г. Емва, ул. Дорожная, 19",
    "latitude": 62.5709,
    "longtitude": 50.85202,
    "name": "11309",
    "country": "RU",
    "phone": "(82139) 2-23-32",
    "region": "Республика Коми"
  },
  {
    "address": "93 км трассы Сыктывкар - Усть-Кулом, справа при движении от с.Усть-Кулом, около с.Сторожевск",
    "latitude": 61.968417,
    "longtitude": 52.344927,
    "name": "11310",
    "country": "RU",
    "phone": "(82136) 9-11-15",
    "region": "Республика Коми"
  },
  {
    "address": "с. Усть-Кулом, на въезде в село слева",
    "latitude": 61.69538,
    "longtitude": 53.75216,
    "name": "11311",
    "country": "RU",
    "phone": "(82137) 9-47-02; (82137) 9-23-05",
    "region": "Республика Коми"
  },
  {
    "address": "г. Сосногорск, ул. Лесная, при въезде в г.Сосногорск с левой стороны ",
    "latitude": 63.579163,
    "longtitude": 53.939115,
    "name": "11313",
    "country": "RU",
    "phone": "(82149) 5-47-03",
    "region": "Республика Коми"
  },
  {
    "address": "г. Воркута, ул. Чехова, 2 А",
    "latitude": 67.5323,
    "longtitude": 64.09322,
    "name": "11316",
    "country": "RU",
    "phone": "(82151) 7-80-25",
    "region": "Республика Коми"
  },
  {
    "address": "270 км трассы Сыктывкар – Киров, справа при движении от г.Кирова, около с.Летка",
    "latitude": 59.59972,
    "longtitude": 49.4063,
    "name": "11317",
    "country": "RU",
    "phone": "(82133) 4-11-42",
    "region": "Республика Коми"
  },
  {
    "address": "г. Печора, ул. Островского, 63",
    "latitude": 65.12933,
    "longtitude": 57.18058,
    "name": "11318",
    "country": "RU",
    "phone": "(82142) 5-23-11",
    "region": "Республика Коми"
  },
  {
    "address": "с. Койгородок,  180 км от г. Сыктывкара",
    "latitude": 60.457581,
    "longtitude": 51.01158,
    "name": "11319",
    "country": "RU",
    "phone": "(82132) 9-13-09",
    "region": "Республика Коми"
  },
  {
    "address": "г. Сыктывкар, п. Эжва, ул.Калинина, 8/1",
    "latitude": 61.8107,
    "longtitude": 50.73635,
    "name": "11320",
    "country": "RU",
    "phone": "(8212) 627718",
    "region": "Республика Коми"
  },
  {
    "address": "п. Нижний Одес, ул. Промысловая, 7",
    "latitude": 63.64747,
    "longtitude": 54.84533,
    "name": "11322",
    "country": "RU",
    "phone": "912-941-46-60    (82149) 2-22-91",
    "region": "Республика Коми"
  },
  {
    "address": "с. Усть-Цильма, п. Сельхозтехника, 74 Б",
    "latitude": 65.42552,
    "longtitude": 52.18067,
    "name": "11323",
    "country": "RU",
    "phone": "(82141) 9-16-61",
    "region": "Республика Коми"
  },
  {
    "address": "Ухта, п. Ярега ул. Заречная, 1 Б",
    "latitude": 63.43415,
    "longtitude": 53.54725,
    "name": "11324",
    "country": "RU",
    "phone": "9129661058",
    "region": "Республика Коми"
  },
  {
    "address": "г. Микунь, ул. Мечникова, 77",
    "latitude": 62.34188,
    "longtitude": 50.07177,
    "name": "11325",
    "country": "RU",
    "phone": "(82134) 3-12-97",
    "region": "Республика Коми"
  },
  {
    "address": "г. Воркута, ул Автозаводская, 12 ",
    "latitude": 67.49813,
    "longtitude": 64.0931,
    "name": "11326",
    "country": "RU",
    "phone": "(82151) 6-12-41",
    "region": "Республика Коми"
  },
  {
    "address": "г. Сыктывкар, м. Дырнос, 141",
    "latitude": 61.679526,
    "longtitude": 50.73835,
    "name": "11327",
    "country": "RU",
    "phone": "(8212) 43-87-65",
    "region": "Республика Коми"
  },
  {
    "address": "г. Инта, п. Западный, ул. Геологическая, 6",
    "latitude": 66.025452,
    "longtitude": 60.082757,
    "name": "11329",
    "country": "RU",
    "phone": "(82145) 6-29-73",
    "region": "Республика Коми"
  },
  {
    "address": "г. Ухта, VII квартал северо - западного р-на",
    "latitude": 63.57115,
    "longtitude": 53.635824,
    "name": "11330",
    "country": "RU",
    "phone": "(82147) 5-06-36",
    "region": "Республика Коми"
  },
  {
    "address": "г.Ухта, ул. Севастопольская, 16 ",
    "latitude": 63.56789,
    "longtitude": 53.70311,
    "name": "11332",
    "country": "RU",
    "phone": "(82147) 4-58-62",
    "region": "Республика Коми"
  },
  {
    "address": "140 км трассы Сыктывкар-Ухта, г. Емва, Магистральный пр-д 3, объездная дорога, справа при движении от г.Сыктывкара",
    "latitude": 62.618274,
    "longtitude": 50.936689,
    "name": "11333",
    "country": "RU",
    "phone": "(82139) 2-28-01",
    "region": "Республика Коми"
  },
  {
    "address": "п. Комсомольск-на-Печоре, ул.Дорожная, 3",
    "latitude": 62.13473,
    "longtitude": 56.59242,
    "name": "11335",
    "country": "RU",
    "phone": "9129660828",
    "region": "Республика Коми"
  },
  {
    "address": "г. Вуктыл, промзона, ул.Таежная, 9",
    "latitude": 63.835076,
    "longtitude": 57.305646,
    "name": "11336",
    "country": "RU",
    "phone": "(82146) 2-24-03; (82146)2-21-95",
    "region": "Республика Коми"
  },
  {
    "address": "п. Усогорск, ул. Дружбы, 54 ",
    "latitude": 63.4243,
    "longtitude": 48.72369,
    "name": "11337",
    "country": "RU",
    "phone": "(82135) 5-19-89",
    "region": "Республика Коми"
  },
  {
    "address": "п. Ижма, ул.Советская, 150",
    "latitude": 65.018541,
    "longtitude": 53.920428,
    "name": "11339",
    "country": "RU",
    "phone": "(82140) 9-44-75",
    "region": "Республика Коми"
  },
  {
    "address": "п. Щельяюр, ул. Дорожная, 25",
    "latitude": 65.321854,
    "longtitude": 53.382555,
    "name": "11340",
    "country": "RU",
    "phone": "(82140) 9-19-77",
    "region": "Республика Коми"
  },
  {
    "address": "38 км трассы Сыктывкар – Киров, справа при движении от г.Кирова, около с.Пажга",
    "latitude": 61.39032,
    "longtitude": 50.56802,
    "name": "11341",
    "country": "RU",
    "phone": "(82130) 7-82-30",
    "region": "Республика Коми"
  },
  {
    "address": "г. Сыктывкар, местечко Човью, ул.1-ая Промышленная, 32",
    "latitude": 61.73015,
    "longtitude": 50.76275,
    "name": "11342",
    "country": "RU",
    "phone": "(8212) 28-62-45",
    "region": "Республика Коми"
  },
  {
    "address": "47 км трассы Сыктывкар - Усть-Кулом, справа при движении от г.Сыктывкара, около с.Корткерос",
    "latitude": 61.803658,
    "longtitude": 51.531194,
    "name": "11343",
    "country": "RU",
    "phone": "(82136) 9-23-05",
    "region": "Республика Коми"
  },
  {
    "address": "г.Усинск, ул. Промышленная, 4",
    "latitude": 66.01815,
    "longtitude": 57.53938,
    "name": "11345",
    "country": "RU",
    "phone": "'(82144) 5-64-69,  (82144) 2-04-22'",
    "region": "Республика Коми"
  },
  {
    "address": "230 км трассы Сыктывкар-Ухта, п. Чиньяворык, ул. Железнодорожная, 2 А, справа при движении от г. Ухты",
    "latitude": 63.21532,
    "longtitude": 52.68907,
    "name": "11346",
    "country": "RU",
    "phone": "(82139) 2-67-90",
    "region": "Республика Коми"
  },
  {
    "address": "г. Ухта, ул. Южная, 1",
    "latitude": 63.5552,
    "longtitude": 53.71712,
    "name": "11347",
    "country": "RU",
    "phone": "(82147) 5-26-87",
    "region": "Республика Коми"
  },
  {
    "address": "'г. Сыктывкар, Сысольское ш., 90  (на въезде в г.Сыктывкар со стороны г.Кирова, слева)'",
    "latitude": 61.6419,
    "longtitude": 50.81652,
    "name": "11350",
    "country": "RU",
    "phone": "(8212) 21-04-19",
    "region": "Республика Коми"
  },
  {
    "address": "г. Усинск, ул. Промышленная улица, 21",
    "latitude": 65.99493,
    "longtitude": 57.54368,
    "name": "11353",
    "country": "RU",
    "phone": "(82144) 4-74-75",
    "region": "Республика Коми"
  },
  {
    "address": "г.Сосногорск, ул. Коммунальная, 12",
    "latitude": 63.59884,
    "longtitude": 53.89407,
    "name": "11354",
    "country": "RU",
    "phone": "912-942-75-97",
    "region": "Республика Коми"
  },
  {
    "address": "г. Сыктывкар, ул.Петрозаводская, 16, через дорогу от Торгового центра \"Орбита\"",
    "latitude": 61.68857,
    "longtitude": 50.82338,
    "name": "11355",
    "country": "RU",
    "phone": "(8212) 51-20-16",
    "region": "Республика Коми"
  },
  {
    "address": "г. Печора, п.Изъяю, ул.Промышленная, 2, на левом берегу р. Печора, с левой стороны по дороге на нефтебазу",
    "latitude": 65.11657,
    "longtitude": 56.99932,
    "name": "11356",
    "country": "RU",
    "phone": "(82142) 9-98-72",
    "region": "Республика Коми"
  },
  {
    "address": "г. Сыктывкар, ул.Пермская, 30, местечко Кочпон",
    "latitude": 61.6436,
    "longtitude": 50.87337,
    "name": "11358",
    "country": "RU",
    "phone": "(8212) 22-06-00",
    "region": "Республика Коми"
  },
  {
    "address": "г. Сыктывкар, п.Краснозатонский, ул.Трудовая, 40",
    "latitude": 61.66466,
    "longtitude": 50.96883,
    "name": "11359",
    "country": "RU",
    "phone": "(8212) 23-63-74",
    "region": "Республика Коми"
  },
  {
    "address": " п. Воргашор, ул. Фасадная, 6 (Новый арендатор, терминал снят)",
    "latitude": 67.588,
    "longtitude": 63.81007,
    "name": "11360",
    "country": "RU",
    "phone": "(82151) 7-68-52",
    "region": "Республика Коми"
  },
  {
    "address": "27 км трассы Усинск-Харьягинск г.Усинск, местечко Головные сооружения, справа при движении из п. Харьягинск",
    "latitude": 66.154863,
    "longtitude": 57.332173,
    "name": "11361",
    "country": "RU",
    "phone": "(82144) 5-66-31",
    "region": "Республика Коми"
  },
  {
    "address": "108 км трассы Усинск-Харьягинск, Усинский р-н, п. Верхнеколвинск , местечко 51 Буровая, справа при движении из п.Харьягинск",
    "latitude": 66.671373,
    "longtitude": 56.996642,
    "name": "11364",
    "country": "RU",
    "phone": "(82144) 5-78-06",
    "region": "Республика Коми"
  },
  {
    "address": "г.Усинск, ул.Нефтяников, 8",
    "latitude": 65.9933,
    "longtitude": 57.5174,
    "name": "11365",
    "country": "RU",
    "phone": "(82144) 5-72-26",
    "region": "Республика Коми"
  },
  {
    "address": "г. Ухта, мкр. Дальний, Сосногорское шоссе, 7",
    "latitude": 63.546486,
    "longtitude": 53.796814,
    "name": "11366",
    "country": "RU",
    "phone": "(82147) 5-71-01",
    "region": "Республика Коми"
  },
  {
    "address": "г.Печора, ул.Железнодорожников",
    "latitude": 65.139529,
    "longtitude": 57.178116,
    "name": "11369",
    "country": "RU",
    "phone": "912-943-70-63",
    "region": "Республика Коми"
  },
  {
    "address": "г. Сыктывкар, пр. Бумажников, д. 72, м. Емваль",
    "latitude": 61.77422,
    "longtitude": 50.75146,
    "name": "11379",
    "country": "RU",
    "phone": "(8212) 62-40-44",
    "region": "Республика Коми"
  },
  {
    "address": "г. Сыктывкар, Сысольское ш., 55",
    "latitude": 61.63582,
    "longtitude": 50.81303,
    "name": "11389",
    "country": "RU",
    "phone": "(8212) 31-63-64",
    "region": "Республика Коми"
  },
  {
    "address": "г. Сыктывкар, Ухтинское ш., 14",
    "latitude": 61.804559,
    "longtitude": 50.730896,
    "name": "11396",
    "country": "RU",
    "phone": "(8212) 65-85-79",
    "region": "Республика Коми"
  },
  {
    "address": "г. Иваново, ул. Павла Большевикова, 3",
    "latitude": 56.96345,
    "longtitude": 41.03445,
    "name": "11 НП",
    "country": "RU",
    "phone": "(930) 345-98-71",
    "region": "Ивановская область"
  },
  {
    "address": "д. Горка, Череповецкий р-он",
    "latitude": 59.181283,
    "longtitude": 37.942183,
    "name": "11 Э",
    "country": "RU",
    "phone": "(8202) 69-34-03",
    "region": "Вологодская область"
  },
  {
    "address": "Брестская обл., Брестский р-н, М1, 25-й км, 1",
    "latitude": 52.125526,
    "longtitude": 23.891097,
    "name": "12",
    "country": "BY",
    "phone": "-",
    "region": "Брестская область"
  },
  {
    "address": "г. Йошкар-Ола, ул.Кирова,  д.2А",
    "latitude": 56.627652,
    "longtitude": 47.927945,
    "name": "12003",
    "country": "RU",
    "phone": "(8362) 560000",
    "region": "Республика Марий Эл"
  },
  {
    "address": "п.Мари-Турек, ул.Комсомольская, д.78, Сернурский тракт, трасса Йошкар-Ола - Сернур - Мари-Турек, 129 км от г.Йошкар-Олы",
    "latitude": 56.78416,
    "longtitude": 49.5986,
    "name": "12008",
    "country": "RU",
    "phone": "(83634) 93597",
    "region": "Республика Марий Эл"
  },
  {
    "address": "Федеральная дорога Вятка 87км ",
    "latitude": 56.59515,
    "longtitude": 47.8886,
    "name": "12009",
    "country": "RU",
    "phone": "(8362) 68-82-01",
    "region": "Республика Марий Эл"
  },
  {
    "address": "г. Йошкар-Ола, ул. Фестивальная, д.70а",
    "latitude": 56.642916,
    "longtitude": 47.83176,
    "name": "12010",
    "country": "RU",
    "phone": "(8362) 465640",
    "region": "Республика Марий Эл"
  },
  {
    "address": "п. Морки, Моркинский р-он, ул.Заозерная,д.67",
    "latitude": 56.42875,
    "longtitude": 48.9749,
    "name": "12013",
    "country": "RU",
    "phone": "(83635) 9-14-00",
    "region": "Республика Марий Эл"
  },
  {
    "address": "Новоторъяльский р-он, автодорога Йошкар-Ола-Нурсола-Новый Торъял, 84км",
    "latitude": 56.98589,
    "longtitude": 48.743583,
    "name": "12014",
    "country": "RU",
    "phone": "(8236) 9-26-21",
    "region": "Республика Марий Эл"
  },
  {
    "address": "п.Советский, 39 км автодороги Йошкар-Ола - Уржум",
    "latitude": 56.74735,
    "longtitude": 48.44143,
    "name": "12019",
    "country": "RU",
    "phone": "(83638) 95697",
    "region": "Республика Марий Эл"
  },
  {
    "address": "г. Звенигово, ул. Охотина в 60 метрах по направлению на северо-восток от дома №4",
    "latitude": 55.9894,
    "longtitude": 48.00895,
    "name": "12022",
    "country": "RU",
    "phone": "(83645) 71516",
    "region": "Республика Марий Эл"
  },
  {
    "address": "г. Йошкар-Ола, ул.К.Маркса, д.132",
    "latitude": 56.62265,
    "longtitude": 47.888216,
    "name": "12023",
    "country": "RU",
    "phone": "(8362) 45-29-50",
    "region": "Республика Марий Эл"
  },
  {
    "address": "г. Волжск, ул.Кошкина, при въезде в город со стороны г.Казани рядом с постом ГИБДД",
    "latitude": 55.845216,
    "longtitude": 48.404516,
    "name": "12031",
    "country": "RU",
    "phone": "(83631) 4-58-74",
    "region": "Республика Марий Эл"
  },
  {
    "address": "п. Красногорск, Звениговский р-он, федеральная  автодорога Йошкар-Ола-Зеленодольск, км 65+120 слева",
    "latitude": 56.1453,
    "longtitude": 48.31526,
    "name": "12032",
    "country": "RU",
    "phone": "(83645)6-53-08",
    "region": "Республика Марий Эл"
  },
  {
    "address": "5 км до г. Кокшайск, внутри транспортной развязки кольцевого типа на км. 40+636 (слева) федеральной дороги \"Вятка\"",
    "latitude": 56.188727,
    "longtitude": 47.789961,
    "name": "12040",
    "country": "RU",
    "phone": "8 985 791 21 94",
    "region": "Республика Марий Эл"
  },
  {
    "address": "с Помары, ул. Луксум, 7",
    "latitude": 55.943921,
    "longtitude": 48.372095,
    "name": "12844",
    "country": "RU",
    "phone": "8 961 378 38 79",
    "region": "Республика Марий Эл"
  },
  {
    "address": "г. Волжск, ул. Йошкар-Олинское шоссе, 16",
    "latitude": 55.881473,
    "longtitude": 48.360096,
    "name": "12845",
    "country": "RU",
    "phone": "8 961 378 38 47",
    "region": "Республика Марий Эл"
  },
  {
    "address": "г. Иваново, ул. Тимирязева, 60",
    "latitude": 57.026409,
    "longtitude": 40.965845,
    "name": "12 НП",
    "country": "RU",
    "phone": "89303555079",
    "region": "Ивановская область"
  },
  {
    "address": "Брестская обл., г. Брест, ул. Карьерная, 11",
    "latitude": 52.065199,
    "longtitude": 23.757677,
    "name": "13",
    "country": "BY",
    "phone": "-",
    "region": "Брестская область"
  },
  {
    "address": "г. Саранск, ул. Лодыгина, д.10А",
    "latitude": 54.220963,
    "longtitude": 45.183201,
    "name": "13201",
    "country": "RU",
    "phone": "8 8342 29 35 35",
    "region": "Республика Мордовия"
  },
  {
    "address": "г. Саранск, ул. Волгоградская",
    "latitude": 54.184352,
    "longtitude": 45.205874,
    "name": "13202",
    "country": "RU",
    "phone": "8 83425 5 91 91",
    "region": "Республика Мордовия"
  },
  {
    "address": "Старошайговский р-н, с.Старое-Шайгово, Р180, 51 км",
    "latitude": 54.325028,
    "longtitude": 44.481357,
    "name": "13203",
    "country": "RU",
    "phone": "8 83432 2 11 86",
    "region": "Республика Мордовия"
  },
  {
    "address": "Ромодановский р-н, п. Ромоданово, Ичалковское шоссе, д.6",
    "latitude": 54.426619,
    "longtitude": 45.316125,
    "name": "13204",
    "country": "RU",
    "phone": "8 83438 2 11 52",
    "region": "Республика Мордовия"
  },
  {
    "address": "г. Инсар, ул. Пугачева, д.1А",
    "latitude": 53.872381,
    "longtitude": 44.383672,
    "name": "13205",
    "country": "RU",
    "phone": "8 83449 2 11 38",
    "region": "Республика Мордовия"
  },
  {
    "address": "Чамзинский р-н, р.п. Комсомольский, ул. Заводская, д.4",
    "latitude": 54.446142,
    "longtitude": 45.832956,
    "name": "13206",
    "country": "RU",
    "phone": "8 83437 3 13 77",
    "region": "Республика Мордовия"
  },
  {
    "address": "с. Дубенки , Дубенский район, Р178, 84 км",
    "latitude": 54.424419,
    "longtitude": 46.309878,
    "name": "13208",
    "country": "RU",
    "phone": "8 83447 2 12 75",
    "region": "Республика Мордовия"
  },
  {
    "address": "г. Саранск, ул. Осипенко, д.8б",
    "latitude": 54.153422,
    "longtitude": 45.16139,
    "name": "13210",
    "country": "RU",
    "phone": "8 83423 5 78 12",
    "region": "Республика Мордовия"
  },
  {
    "address": "Торбеевский р-н, пгт. Торбеево",
    "latitude": 54.085609,
    "longtitude": 43.219035,
    "name": "13211",
    "country": "RU",
    "phone": "8 83456 2 01 35",
    "region": "Республика Мордовия"
  },
  {
    "address": "Атяшевский р-н, р.п. Атяшево, пер. Совецкий, д. 14А",
    "latitude": 54.594447,
    "longtitude": 46.085895,
    "name": "13212",
    "country": "RU",
    "phone": "8 83434 2 30 64",
    "region": "Республика Мордовия"
  },
  {
    "address": "п. Зубова-Поляна, Зубово-Полянский район",
    "latitude": 54.078579,
    "longtitude": 42.805137,
    "name": "13213",
    "country": "RU",
    "phone": "8 83458 2 28 70",
    "region": "Республика Мордовия"
  },
  {
    "address": "Темниковский р-н, г. Темников, ул. Интернациональная",
    "latitude": 54.64255,
    "longtitude": 43.22558,
    "name": "13214",
    "country": "RU",
    "phone": "8 83445 2 49 82",
    "region": "Республика Мордовия"
  },
  {
    "address": "Ковылкинский р-н, г. Ковылкино, ул. Королева",
    "latitude": 54.028154,
    "longtitude": 43.913181,
    "name": "13215",
    "country": "RU",
    "phone": "8 960 334 00 75",
    "region": "Республика Мордовия"
  },
  {
    "address": "Болшеигнатовский р-н, с. Большое Игнатово, ул. Советская, д.55",
    "latitude": 55.006912,
    "longtitude": 45.55108,
    "name": "13216",
    "country": "RU",
    "phone": "8 83442 2 11 73",
    "region": "Республика Мордовия"
  },
  {
    "address": "г. Саранск, ул. Косарева, д.130А",
    "latitude": 54.21028,
    "longtitude": 45.268491,
    "name": "13217",
    "country": "RU",
    "phone": "8 8342 55 97 44",
    "region": "Республика Мордовия"
  },
  {
    "address": "г. Саранск,  ул. Севастопольская, 128, стр 1",
    "latitude": 54.202975,
    "longtitude": 45.226896,
    "name": "13218",
    "country": "RU",
    "phone": "8 8342 55 92 42",
    "region": "Республика Мордовия"
  },
  {
    "address": "г. Саранск, ул. Рабочая, 47 А,  стр.1, Ленинский р-он.",
    "latitude": 54.185278,
    "longtitude": 45.196434,
    "name": "13219",
    "country": "RU",
    "phone": "8 8342 24 04 92",
    "region": "Республика Мордовия"
  },
  {
    "address": "г. Саранск, Лямбирское ш., 2 км, трасса Н.Новгород-Саратов, слева по ходу движения",
    "latitude": 54.235861,
    "longtitude": 45.151437,
    "name": "13220",
    "country": "RU",
    "phone": "8 8342 76 51 05",
    "region": "Республика Мордовия"
  },
  {
    "address": "г. Краснодар, ул. Захарова, 5",
    "latitude": 45.0072,
    "longtitude": 38.96802,
    "name": "23098",
    "country": "RU",
    "phone": "8 (861) 240-94-54",
    "region": "Краснодарский край"
  },
  {
    "address": "г. Саранск, ул. Победы, 16, Пролетарский р-он. ",
    "latitude": 54.208554,
    "longtitude": 45.111672,
    "name": "13221",
    "country": "RU",
    "phone": "8 8342 72 97 17",
    "region": "Республика Мордовия"
  },
  {
    "address": "Саранск, ул. Строительная, 11 А, стр. 1, Пролетарский р-он",
    "latitude": 54.205304,
    "longtitude": 45.163975,
    "name": "13222",
    "country": "RU",
    "phone": "8 960 333 90 83",
    "region": "Республика Мордовия"
  },
  {
    "address": "г. Саранск, 2 км Александровского ш., Пролетарский р-он.  ",
    "latitude": 54.23901,
    "longtitude": 45.230345,
    "name": "13223",
    "country": "RU",
    "phone": "8 8342 29 40 67",
    "region": "Республика Мордовия"
  },
  {
    "address": "п. Чамзинка, Республиканская, 1, справа при движении в сторону г.Ульяновска",
    "latitude": 54.412537,
    "longtitude": 45.789277,
    "name": "13224",
    "country": "RU",
    "phone": "8 960 334 00 21",
    "region": "Республика Мордовия"
  },
  {
    "address": "Ичалковский район, п..Рождествено, ул.Полевая, 23",
    "latitude": 54.678156,
    "longtitude": 45.29002,
    "name": "13225",
    "country": "RU",
    "phone": "8 960 333 93 90",
    "region": "Республика Мордовия"
  },
  {
    "address": "г. Саранск  р.п. Луховка, ул. Красная,  а/д Саранск-Кочкурово",
    "latitude": 54.176477,
    "longtitude": 45.214707,
    "name": "13226",
    "country": "RU",
    "phone": "8 960 333 84 58",
    "region": "Республика Мордовия"
  },
  {
    "address": "г. Рузаевка, ул. Л.Толстого, д.9",
    "latitude": 54.079493,
    "longtitude": 44.934715,
    "name": "13227",
    "country": "RU",
    "phone": "8 960 334 00 52",
    "region": "Республика Мордовия"
  },
  {
    "address": "г. Иваново, Писцово",
    "latitude": 57.168965,
    "longtitude": 40.522835,
    "name": "13 НП",
    "country": "RU",
    "phone": "89303453895",
    "region": "Ивановская область"
  },
  {
    "address": "Брестская обл., г. Брест, ул. л-та Рябцева, 110",
    "latitude": 52.138581,
    "longtitude": 23.674708,
    "name": "14",
    "country": "BY",
    "phone": "-",
    "region": "Брестская область"
  },
  {
    "address": "г. Иваново, ул. Тимирязева, д 1/3",
    "latitude": 57.01463,
    "longtitude": 40.95605,
    "name": "14 НП",
    "country": "RU",
    "phone": "89303615437",
    "region": "Ивановская область"
  },
  {
    "address": "Брестская обл., г. Брест, ул. Суворова, 105/2",
    "latitude": 52.070928,
    "longtitude": 23.763351,
    "name": "15",
    "country": "BY",
    "phone": "-",
    "region": "Брестская область"
  },
  {
    "address": "г. Моздок, ул. Транспортная, д. 9 ",
    "latitude": 43.74825,
    "longtitude": 44.65015,
    "name": "15279",
    "country": "RU",
    "phone": "+7 (928) 493-83-82",
    "region": "Республика Северная Осетия-Алания"
  },
  {
    "address": "г. Владикавказ, ул. Московская, д. 16 «б»",
    "latitude": 43.05426,
    "longtitude": 44.6398,
    "name": "15280",
    "country": "RU",
    "phone": "79888691455",
    "region": "Республика Северная Осетия-Алания"
  },
  {
    "address": "г. Владикавказ, ул. Ватутина, д.101",
    "latitude": 43.0435,
    "longtitude": 44.69287,
    "name": "15281",
    "country": "RU",
    "phone": "79888691455",
    "region": "Республика Северная Осетия-Алания"
  },
  {
    "address": "с. Майское,  трасса Беслан-Грзный участок дороги № 4",
    "latitude": 43.186543,
    "longtitude": 44.723731,
    "name": "15367",
    "country": "RU",
    "phone": "8(928) 7935336",
    "region": "Республика Северная Осетия-Алания"
  },
  {
    "address": "Алагирский р-н, с. Нижний Бирагзанг, а/д Алагир-Владикавказ",
    "latitude": 43.026824,
    "longtitude": 44.238213,
    "name": "15372",
    "country": "RU",
    "phone": "8(928)-066-37-31",
    "region": "Республика Северная Осетия-Алания"
  },
  {
    "address": "г. Иваново, ул. Кузнецова, кольцо маршрута 5-го троллейбуса.",
    "latitude": 57.015729,
    "longtitude": 40.929178,
    "name": "15 НП",
    "country": "RU",
    "phone": "8-930-361-54-31",
    "region": "Ивановская область"
  },
  {
    "address": "Республика Беларусь, Брестская обл., Барановичский р-н, Р-4, 6-й км, 2",
    "latitude": 53.124696,
    "longtitude": 26.089067,
    "name": "16",
    "country": "BY",
    "phone": "-",
    "region": "Брестская область"
  },
  {
    "address": "г. Казань, ул. Космонавтов, 46а",
    "latitude": 55.79426711,
    "longtitude": 49.19954539,
    "name": "16001 АЗС 1",
    "country": "RU",
    "phone": "(843) 272-52-33",
    "region": "Республика Татарстан"
  },
  {
    "address": "с. Поспелово, трасса М7, 1032 км",
    "latitude": 55.78057947,
    "longtitude": 52.19025136,
    "name": "16009 АЗС 9-У",
    "country": "RU",
    "phone": "(85557) 2-35-69",
    "region": "Республика Татарстан"
  },
  {
    "address": "г. Бавлы, М5, 1280 км",
    "latitude": 54.476316,
    "longtitude": 53.403832,
    "name": "16012 АЗС 12-У",
    "country": "RU",
    "phone": "(85519) 3-31-28",
    "region": "Республика Татарстан"
  },
  {
    "address": "г. Казань, пересечение ул. Модельная и ул. Техническая",
    "latitude": 55.748117,
    "longtitude": 49.132661,
    "name": "16020 АЗС 20",
    "country": "RU",
    "phone": "-",
    "region": "Республика Татарстан"
  },
  {
    "address": "г. Бугульма, Бавлинский выезд",
    "latitude": 54.494326,
    "longtitude": 52.897355,
    "name": "16036 АЗС 36",
    "country": "RU",
    "phone": "(85514) 7-12-52",
    "region": "Республика Татарстан"
  },
  {
    "address": "г. Азнакаево, микрорайон Тукая",
    "latitude": 54.85401,
    "longtitude": 53.062633,
    "name": "16039 АЗС 39",
    "country": "RU",
    "phone": "(85592) 2-02-28",
    "region": "Республика Татарстан"
  },
  {
    "address": "г. Бугульма, ул. Ленина, 127а",
    "latitude": 54.52867156,
    "longtitude": 52.82866806,
    "name": "16040 АЗС 40",
    "country": "RU",
    "phone": "(85514) 3-92-42",
    "region": "Республика Татарстан"
  },
  {
    "address": "г. Нижнекамск, ул. Ахтубинская, 3д",
    "latitude": 55.622328,
    "longtitude": 51.824765,
    "name": "16049 АЗС 49",
    "country": "RU",
    "phone": "(8555) 41-53-52",
    "region": "Республика Татарстан"
  },
  {
    "address": "г. Казань, М7, 770 км",
    "latitude": 55.732686,
    "longtitude": 48.773643,
    "name": "16056 АЗС 56",
    "country": "RU",
    "phone": "8-917-296-65-34",
    "region": "Республика Татарстан"
  },
  {
    "address": "г. Набережные Челны, ул. Металлургическая (Промкомзона)",
    "latitude": 55.67420292,
    "longtitude": 52.46199973,
    "name": "16059 АЗС 59",
    "country": "RU",
    "phone": "",
    "region": "Республика Татарстан"
  },
  {
    "address": "п. Шапши, а/д Казань-Пермь, 34 км",
    "latitude": 55.982212,
    "longtitude": 49.479522,
    "name": "16066 АЗС 66-У",
    "country": "RU",
    "phone": "8-919-620-64-66",
    "region": "Республика Татарстан"
  },
  {
    "address": "г. Бугульма, 138 км а/д Р239 Казань — Оренбург",
    "latitude": 55.278602,
    "longtitude": 50.76575,
    "name": "16078 АЗС 78-У",
    "country": "RU",
    "phone": "8-987-285-23-78",
    "region": "Республика Татарстан"
  },
  {
    "address": "с.п. Старое Шигалеево, на въезде",
    "latitude": 55.82198863,
    "longtitude": 49.49680925,
    "name": "16085 АЗС а1685-У",
    "country": "RU",
    "phone": "89872147325",
    "region": "Республика Татарстан"
  },
  {
    "address": "г. Казань, ул. Родины, 7а",
    "latitude": 55.773124,
    "longtitude": 49.197282,
    "name": "16088 АЗС 88-У",
    "country": "RU",
    "phone": "(843) 255-31-64",
    "region": "Республика Татарстан"
  },
  {
    "address": "г. Набережные Челны, РТ, М7, 1058 км",
    "latitude": 55.677431,
    "longtitude": 52.443601,
    "name": "16090 АЗС 90-У",
    "country": "RU",
    "phone": "(8552) 44-33-80",
    "region": "Республика Татарстан"
  },
  {
    "address": "г. Казань, ул. Тэцевская, 11а",
    "latitude": 55.84925,
    "longtitude": 49.062707,
    "name": "16093 АЗС 93",
    "country": "RU",
    "phone": "(843) 570-79-61",
    "region": "Республика Татарстан"
  },
  {
    "address": "г. Альметьевск, ул. Базовая, 48",
    "latitude": 54.877576433,
    "longtitude": 52.285076184,
    "name": "16094 АЗС 94",
    "country": "RU",
    "phone": "8-937-592-13-94",
    "region": "Республика Татарстан"
  },
  {
    "address": "Зеленодольский район, с.Айша, ул.Кооперативная,25а",
    "latitude": 55.87200636,
    "longtitude": 48.6294955,
    "name": "16096 АЗС 96",
    "country": "RU",
    "phone": "8-927-411-22-89",
    "region": "Республика Татарстан"
  },
  {
    "address": "с. Алан-Полян, 914 км трассы М-7",
    "latitude": 55.68608,
    "longtitude": 50.52721,
    "name": "16097 АЗС 97",
    "country": "RU",
    "phone": "(843) 296-66-33",
    "region": "Республика Татарстан"
  },
  {
    "address": "с. Шадкинское, 897 км М7 Волга",
    "latitude": 55.693955,
    "longtitude": 50.292264,
    "name": "16098 АЗС 98",
    "country": "RU",
    "phone": "(843) 296-66-33",
    "region": "Республика Татарстан"
  },
  {
    "address": "п. Бавлы, ул. Сайдашева",
    "latitude": 54.395073,
    "longtitude": 53.245816,
    "name": "16101 АЗС 101",
    "country": "RU",
    "phone": "(85569) 5-28-85",
    "region": "Республика Татарстан"
  },
  {
    "address": "г. Лениногорск, ул. Чайковского,17а",
    "latitude": 54.59461254,
    "longtitude": 52.45572551,
    "name": "16102 АЗС 102",
    "country": "RU",
    "phone": "(85595) 5-46-67",
    "region": "Республика Татарстан"
  },
  {
    "address": "с. Поспелово, М7, 1032 км",
    "latitude": 55.77927622,
    "longtitude": 52.19973564,
    "name": "16104 АЗС 104",
    "country": "RU",
    "phone": "(85557) 4-91-22",
    "region": "Республика Татарстан"
  },
  {
    "address": "д. Десятидворики, М7, 772 км",
    "latitude": 55.75165652,
    "longtitude": 48.80370496,
    "name": "16105 АЗС 105",
    "country": "RU",
    "phone": "8-987-214-70-91",
    "region": "Республика Татарстан"
  },
  {
    "address": "г. Казань, пр. Победы",
    "latitude": 55.80194,
    "longtitude": 49.21112,
    "name": "16109 АЗС 109",
    "country": "RU",
    "phone": "89872954819",
    "region": "Республика Татарстан"
  },
  {
    "address": "г. Казань, ул. Мавлютова, 50а",
    "latitude": 55.744477881,
    "longtitude": 49.190317085,
    "name": "16110 АЗС 110",
    "country": "RU",
    "phone": "8-987-293-24-62",
    "region": "Республика Татарстан"
  },
  {
    "address": "г. Набережные Челны, Альметьевский тракт (а/д Набережные Челны-Альметьевск)",
    "latitude": 55.661500399,
    "longtitude": 52.261349187,
    "name": "16111 АЗС 111",
    "country": "RU",
    "phone": "",
    "region": "Республика Татарстан"
  },
  {
    "address": "г. Казань, ул. Аделя Кутуя, 98",
    "latitude": 55.782564972,
    "longtitude": 49.1883421416,
    "name": "16112 АЗС 112",
    "country": "RU",
    "phone": "89172254164",
    "region": "Республика Татарстан"
  },
  {
    "address": "г. Казань, ул. Тульская, 56/3",
    "latitude": 55.733466358,
    "longtitude": 49.143132792,
    "name": "16113 АЗС 113",
    "country": "RU",
    "phone": "08(843)5-113",
    "region": "Республика Татарстан"
  },
  {
    "address": "г. Нижнекамск, ул. 2 Промышленная, 46",
    "latitude": 55.614992855,
    "longtitude": 51.979412482,
    "name": "16114 АЗС 114",
    "country": "RU",
    "phone": "-",
    "region": "Республика Татарстан"
  },
  {
    "address": "г. Казань, ул. Амирхана, 1д",
    "latitude": 55.815599,
    "longtitude": 49.134689,
    "name": "16115 АЗС 115",
    "country": "RU",
    "phone": "89196800861",
    "region": "Республика Татарстан"
  },
  {
    "address": "г. Казань, ул. Гаврилова",
    "latitude": 55.834669,
    "longtitude": 49.160311,
    "name": "16116 АЗС 116",
    "country": "RU",
    "phone": "89872161524",
    "region": "Республика Татарстан"
  },
  {
    "address": "г. Казань, 818 км трассы M7 (на въезде в Казань)",
    "latitude": 55.86856411,
    "longtitude": 49.300180586,
    "name": "16118 АЗС 118",
    "country": "RU",
    "phone": "-",
    "region": "Республика Татарстан"
  },
  {
    "address": "п. Октябрьский, 72км автодороги Казань-Ульяновск, придорожная полоса автодороги Р-241 Казань-Ульяновск, 13км+600м (справа)",
    "latitude": 55.660899055,
    "longtitude": 48.857178787,
    "name": "16119 АЗС 119",
    "country": "RU",
    "phone": "89172256642",
    "region": "Республика Татарстан"
  },
  {
    "address": "г. Казань, 829-й км, трассы М7",
    "latitude": 55.806603322,
    "longtitude": 49.344502444,
    "name": "16120 АЗС 120",
    "country": "RU",
    "phone": "89172254663",
    "region": "Республика Татарстан"
  },
  {
    "address": "г. Альметьевск, ул. Индустриальная, 37",
    "latitude": 54.888966,
    "longtitude": 52.31163,
    "name": "16122 АЗС 122",
    "country": "RU",
    "phone": "-",
    "region": "Республика Татарстан"
  },
  {
    "address": "в районе с. Ново-Талицы, д. Песочнево, 1",
    "latitude": 57.01011,
    "longtitude": 40.838266,
    "name": "16 НП",
    "country": "RU",
    "phone": "8-920-363-75-04",
    "region": "Ивановская область"
  },
  {
    "address": "Брестская обл., г. Барановичи, ул. Слонимское шоссе, 27А",
    "latitude": 53.107246,
    "longtitude": 25.950867,
    "name": "17",
    "country": "BY",
    "phone": "-",
    "region": "Брестская область"
  },
  {
    "address": "г. Иваново, ул. Жиделева, 2",
    "latitude": 57.007411,
    "longtitude": 40.970525,
    "name": "17 НП",
    "country": "RU",
    "phone": "8-920-674-00-51",
    "region": "Ивановская область"
  },
  {
    "address": "п. Сазоново.",
    "latitude": 59.110101,
    "longtitude": 35.228112,
    "name": "17 Э",
    "country": "RU",
    "phone": "(81741) 3-13-19",
    "region": "Вологодская область"
  },
  {
    "address": "г.Барановичи, ул. Ленина (у путепровода)",
    "latitude": 53.13221,
    "longtitude": 26.037932,
    "name": "18",
    "country": "BY",
    "phone": "-",
    "region": "Брестская область"
  },
  {
    "address": "Ижевск, ул. Маяковского, (рядом с Ижевской нефтебазой)   ",
    "latitude": 56.816933,
    "longtitude": 53.2006,
    "name": "18001",
    "country": "RU",
    "phone": "(3412) 78-28-04",
    "region": "Удмуртская Республика"
  },
  {
    "address": "г. Ижевск, ул. Камбарская, 51",
    "latitude": 56.839817,
    "longtitude": 53.301267,
    "name": "18002",
    "country": "RU",
    "phone": "(3412) 75-1045",
    "region": "Удмуртская Республика"
  },
  {
    "address": "г. Ижевск, Воткинское Шоссе,296 (у ТЭЦ 2)",
    "latitude": 56.903417,
    "longtitude": 53.335774,
    "name": "18003",
    "country": "RU",
    "phone": "(3412) 21-19-33",
    "region": "Удмуртская Республика"
  },
  {
    "address": "г. Ижевск, ул. Буммашевская 1(напротив центрального ГИБДД).",
    "latitude": 56.883,
    "longtitude": 53.2269,
    "name": "18004",
    "country": "RU",
    "phone": "(3412) 45-21-34",
    "region": "Удмуртская Республика"
  },
  {
    "address": "г. Ижевск, 7 км Якшур – Боденского тракта",
    "latitude": 56.893117,
    "longtitude": 53.154667,
    "name": "18005",
    "country": "RU",
    "phone": "(3412) 59-17-75",
    "region": "Удмуртская Республика"
  },
  {
    "address": "г. Ижевск, ул. Азина 342 (можгинская трасса)",
    "latitude": 56.792317,
    "longtitude": 53.1578,
    "name": "18006",
    "country": "RU",
    "phone": "(3412) 71-34-24",
    "region": "Удмуртская Республика"
  },
  {
    "address": "с. Якшур-Бодья, по трассе Ижевск-Югра",
    "latitude": 57.19985,
    "longtitude": 53.156683,
    "name": "18007",
    "country": "RU",
    "phone": "(34162) 2-15-26",
    "region": "Удмуртская Республика"
  },
  {
    "address": "г. Сарапул, ул.М.Горького, 83",
    "latitude": 56.47623,
    "longtitude": 53.779996,
    "name": "18008",
    "country": "RU",
    "phone": "(34147) 3-39-95",
    "region": "Удмуртская Республика"
  },
  {
    "address": "г. Сарапул, ул.Азина, 166 ",
    "latitude": 56.443472,
    "longtitude": 53.798069,
    "name": "18009",
    "country": "RU",
    "phone": "(34147) 2-48-23",
    "region": "Удмуртская Республика"
  },
  {
    "address": "с. Камское, ул. Восточная, 19, Камбарский р-он.",
    "latitude": 56.283909,
    "longtitude": 54.148689,
    "name": "18010",
    "country": "RU",
    "phone": "(34153) 2-94-53",
    "region": "Удмуртская Республика"
  },
  {
    "address": "г. Глазов, ул. Драгунова, 3 ",
    "latitude": 58.130305,
    "longtitude": 52.663696,
    "name": "18011",
    "country": "RU",
    "phone": "(34141) 3-71-75",
    "region": "Удмуртская Республика"
  },
  {
    "address": "п. Балезино, ул. Калинина, 52 ",
    "latitude": 57.96425,
    "longtitude": 52.986483,
    "name": "18012",
    "country": "RU",
    "phone": "(34166) 2-15-89, 8-912-766-03-17",
    "region": "Удмуртская Республика"
  },
  {
    "address": "п. Яр, ул. Советская, 2",
    "latitude": 58.233987,
    "longtitude": 52.12254,
    "name": "18014",
    "country": "RU",
    "phone": "(34157) 4-12-57",
    "region": "Удмуртская Республика"
  },
  {
    "address": "г. Можга,  ул.Вавожский Тракт ",
    "latitude": 56.468622,
    "longtitude": 52.210848,
    "name": "18016",
    "country": "RU",
    "phone": "(34139) 3-07-74",
    "region": "Удмуртская Республика"
  },
  {
    "address": "с. Грахово, ул.Азина, 31",
    "latitude": 56.045345,
    "longtitude": 51.944247,
    "name": "18019",
    "country": "RU",
    "phone": " (34163) 2-12-45",
    "region": "Удмуртская Республика"
  },
  {
    "address": "п. Кизнер, ул.Первомайская, 45",
    "latitude": 56.277103,
    "longtitude": 51.51552,
    "name": "18020",
    "country": "RU",
    "phone": " (34154) 3-41-29  ",
    "region": "Удмуртская Республика"
  },
  {
    "address": "п. Дебесы, ул.Андронова, 84",
    "latitude": 57.662375,
    "longtitude": 53.795443,
    "name": "18021",
    "country": "RU",
    "phone": "(34130) 2-12-70",
    "region": "Удмуртская Республика"
  },
  {
    "address": "п. Кез, ул. Комсомольская, 38 ",
    "latitude": 57.8854,
    "longtitude": 53.727183,
    "name": "18022",
    "country": "RU",
    "phone": "(912)-852-62-80",
    "region": "Удмуртская Республика"
  },
  {
    "address": "п. Ува,  ул.Толстого, ",
    "latitude": 56.985291,
    "longtitude": 52.164583,
    "name": "18024",
    "country": "RU",
    "phone": " (34130) 5-11-29",
    "region": "Удмуртская Республика"
  },
  {
    "address": "п. Нылга, ул. Тракторная, 18",
    "latitude": 56.768787,
    "longtitude": 52.382713,
    "name": "18025",
    "country": "RU",
    "phone": "(34130) 3-11-15",
    "region": "Удмуртская Республика"
  },
  {
    "address": "с. Сюмси, ул.Сибирская, 1а ",
    "latitude": 57.120257,
    "longtitude": 51.622271,
    "name": "18026",
    "country": "RU",
    "phone": " (34152) 2-11-41",
    "region": "Удмуртская Республика"
  },
  {
    "address": "г. Воткинск, ул.1 Мая, 176 а ",
    "latitude": 57.077549,
    "longtitude": 53.989755,
    "name": "18028",
    "country": "RU",
    "phone": "(34145) 5-91-45",
    "region": "Удмуртская Республика"
  },
  {
    "address": "с.Шаркан, ул.Ленина, 94 ",
    "latitude": 57.281205,
    "longtitude": 53.87352,
    "name": "18033",
    "country": "RU",
    "phone": "(34136) 2-17-11",
    "region": "Удмуртская Республика"
  },
  {
    "address": "с. Красногорское, ул.Ленина, 116 ",
    "latitude": 57.716143,
    "longtitude": 52.508833,
    "name": "18034",
    "country": "RU",
    "phone": "(34164) 2-11-34",
    "region": "Удмуртская Республика"
  },
  {
    "address": "г. Воткинск, ул. Гагарина, 29 (при выезде из города в сторону Чайковского – с левой стороны)",
    "latitude": 57.028732,
    "longtitude": 53.954758,
    "name": "18036",
    "country": "RU",
    "phone": "(34145) 5-27-89",
    "region": "Удмуртская Республика"
  },
  {
    "address": "с. Малая Пурга, ул. Советская, 97",
    "latitude": 56.561892,
    "longtitude": 53.013159,
    "name": "18038",
    "country": "RU",
    "phone": "(34138) 4-17-81",
    "region": "Удмуртская Республика"
  },
  {
    "address": "г. Ижевск, ул. Шабердинский тракт.   ",
    "latitude": 56.865853,
    "longtitude": 53.09403,
    "name": "18039",
    "country": "RU",
    "phone": "(3412) 54-51-63",
    "region": "Удмуртская Республика"
  },
  {
    "address": "с. Завьялово, ул. Гальянская 16, справа при движении в г. Ижевск 3 км  ",
    "latitude": 56.813567,
    "longtitude": 53.369667,
    "name": "18041",
    "country": "RU",
    "phone": "(3412) 32-15-86",
    "region": "Удмуртская Республика"
  },
  {
    "address": "с. Юкаменское,  ул. Юкаменский тракт.",
    "latitude": 57.898784,
    "longtitude": 52.270164,
    "name": "18047",
    "country": "RU",
    "phone": "(34161) 2-12-15",
    "region": "Удмуртская Республика"
  },
  {
    "address": "Завьяловский р-н, д. Каменное, Сарапульский тракт №1",
    "latitude": 56.724017,
    "longtitude": 53.299633,
    "name": "18048",
    "country": "RU",
    "phone": "(3412) 62-51-97",
    "region": "Удмуртская Республика"
  },
  {
    "address": "г. Можга, ул.Ивана Быстрых, 61",
    "latitude": 56.44877,
    "longtitude": 52.266709,
    "name": "18051",
    "country": "RU",
    "phone": "  (34139) 3-49-93     ",
    "region": "Удмуртская Республика"
  },
  {
    "address": "г. Можга, проезд. Сюгаильский, 23 ",
    "latitude": 56.426512,
    "longtitude": 52.179091,
    "name": "18052",
    "country": "RU",
    "phone": "  (34139) 3-15-79",
    "region": "Удмуртская Республика"
  },
  {
    "address": "п. Игра, ул. Ключевая, 6. ",
    "latitude": 57.533975,
    "longtitude": 53.089079,
    "name": "18055",
    "country": "RU",
    "phone": "(34134) 3-21-76",
    "region": "Удмуртская Республика"
  },
  {
    "address": "п. Ува, ул. М. Горького, 60",
    "latitude": 56.970167,
    "longtitude": 52.198333,
    "name": "18056",
    "country": "RU",
    "phone": "(34130) 5-13-95",
    "region": "Удмуртская Республика"
  },
  {
    "address": "г. Сарапул, территория Сигаевской сельской администрации ",
    "latitude": 56.40273,
    "longtitude": 53.758436,
    "name": "18057",
    "country": "RU",
    "phone": "(34147) 2-50-69",
    "region": "Удмуртская Республика"
  },
  {
    "address": "г. Сарапул, ул. Путейская, 74 (справа, при въезде в город)",
    "latitude": 56.4666,
    "longtitude": 53.7184,
    "name": "18058",
    "country": "RU",
    "phone": "89326800158",
    "region": "Удмуртская Республика"
  },
  {
    "address": "с. Можга, 2 км от села",
    "latitude": 56.383922,
    "longtitude": 52.229353,
    "name": "18061",
    "country": "RU",
    "phone": "(34139) 3-14-61",
    "region": "Удмуртская Республика"
  },
  {
    "address": "г. Ижевск, ул. Маяковского, 51 ",
    "latitude": 56.810422,
    "longtitude": 53.208271,
    "name": "18062",
    "country": "RU",
    "phone": "(3412) 50-61-22",
    "region": "Удмуртская Республика"
  },
  {
    "address": "г. Глазов, ул. Красногорский тракт, 17. ",
    "latitude": 58.115226,
    "longtitude": 52.705369,
    "name": "18064",
    "country": "RU",
    "phone": "(34141) 4-37-74",
    "region": "Удмуртская Республика"
  },
  {
    "address": "п. Новый, ул. Построечная, 1",
    "latitude": 56.803101,
    "longtitude": 54.017439,
    "name": "18065",
    "country": "RU",
    "phone": "(34145) 7-25-77",
    "region": "Удмуртская Республика"
  },
  {
    "address": "326 км трассы Казань-Мамадыш-Пермь-Екатеринбург",
    "latitude": 57.080242,
    "longtitude": 51.562584,
    "name": "18067",
    "country": "RU",
    "phone": "(34152) 2-10-62",
    "region": "Удмуртская Республика"
  },
  {
    "address": "г. Глазов, д. Штанигурт, ул. Югокаменская, 2 \"а\"",
    "latitude": 58.118268,
    "longtitude": 52.650355,
    "name": "18068",
    "country": "RU",
    "phone": "(34141) 5-62-06",
    "region": "Удмуртская Республика"
  },
  {
    "address": "г. Ижевск, ул. Ленина, 186",
    "latitude": 56.84034,
    "longtitude": 53.306595,
    "name": "18070",
    "country": "RU",
    "phone": "89199104272",
    "region": "Удмуртская Республика"
  },
  {
    "address": "г. Ижевск, ул. Клубная, 34",
    "latitude": 56.8312,
    "longtitude": 53.148917,
    "name": "18074",
    "country": "RU",
    "phone": "(3412) 61-61-04",
    "region": "Удмуртская Республика"
  },
  {
    "address": "г. Глазов, ул. Советская, 45",
    "latitude": 58.147017,
    "longtitude": 52.64395,
    "name": "18075",
    "country": "RU",
    "phone": "8-912-766-03-11",
    "region": "Удмуртская Республика"
  },
  {
    "address": "п.Вавож, ул.Победы, 104 б ",
    "latitude": 56.778158,
    "longtitude": 51.911785,
    "name": "18077",
    "country": "RU",
    "phone": "  (34155) 2-11-30                                                                                                    ",
    "region": "Удмуртская Республика"
  },
  {
    "address": "д. М.Чепса , трасса Пермь - Казань, участок Очер-Игра,  справа при движении в г.Пермь, 44 км от г.Игры",
    "latitude": 57.63175,
    "longtitude": 53.770833,
    "name": "18078",
    "country": "RU",
    "phone": " (3412) 2-12-69",
    "region": "Удмуртская Республика"
  },
  {
    "address": "г. Сарапул,  ул. Трактовая, 26",
    "latitude": 56.498461,
    "longtitude": 53.792844,
    "name": "18080",
    "country": "RU",
    "phone": "8-932-6800180",
    "region": "Удмуртская Республика"
  },
  {
    "address": "г. Сарапул, ул.Молодежная, 16 ",
    "latitude": 56.44757,
    "longtitude": 53.748218,
    "name": "18082",
    "country": "RU",
    "phone": "8-912-768-45-20",
    "region": "Удмуртская Республика"
  },
  {
    "address": "175 км, трассы Ижевск-Елабуга (ограничение по высоте навеса - 4м)",
    "latitude": 56.027615,
    "longtitude": 52.370918,
    "name": "18084",
    "country": "RU",
    "phone": "8-950-159-98-79",
    "region": "Удмуртская Республика"
  },
  {
    "address": "п. Игра, ул. Мокрушенского, 90",
    "latitude": 57.553194,
    "longtitude": 53.109132,
    "name": "18085",
    "country": "RU",
    "phone": " (34134) 3-21-26 ",
    "region": "Удмуртская Республика"
  },
  {
    "address": "с. Селты, ул.Горького, 46 ",
    "latitude": 57.300572,
    "longtitude": 52.141757,
    "name": "18087",
    "country": "RU",
    "phone": "(34159) 2-11-32                                 ",
    "region": "Удмуртская Республика"
  },
  {
    "address": "с. Балезино по трассе Ижевск - Глазов",
    "latitude": 57.95968,
    "longtitude": 52.972538,
    "name": "18088",
    "country": "RU",
    "phone": "8-912-768-03-14",
    "region": "Удмуртская Республика"
  },
  {
    "address": "д. Миндерево, Малопургинский р-н,  по трассе Елабуга-Ижевск  (ограничение по высоте навеса - 4м)",
    "latitude": 56.573667,
    "longtitude": 53.015783,
    "name": "18089",
    "country": "RU",
    "phone": "(34138) 4-11-92",
    "region": "Удмуртская Республика"
  },
  {
    "address": "г.Воткинск, ул.Пролетарская, 12-а.",
    "latitude": 57.040867,
    "longtitude": 54.006717,
    "name": "18090",
    "country": "RU",
    "phone": " (34145) 3-27-65, ",
    "region": "Удмуртская Республика"
  },
  {
    "address": "с. Алнаши, справа при движении со стороны г.Менделеевска, 33 км в сторону г.Можги",
    "latitude": 56.182033,
    "longtitude": 52.460583,
    "name": "18093",
    "country": "RU",
    "phone": "(34150) 2-11-86",
    "region": "Удмуртская Республика"
  },
  {
    "address": "г. Ижевск, ул. Либкнехта 4",
    "latitude": 56.836867,
    "longtitude": 53.204567,
    "name": "18098",
    "country": "RU",
    "phone": "(3412) 78-46-91",
    "region": "Удмуртская Республика"
  },
  {
    "address": "г. Ижевск, Славянское шоссе, с. Орловское ",
    "latitude": 56.948117,
    "longtitude": 53.2218,
    "name": "18099",
    "country": "RU",
    "phone": "8  932  680 01 99 ",
    "region": "Удмуртская Республика"
  },
  {
    "address": "г. Ижевск,  ул.Воткинское шоссе, 17",
    "latitude": 56.889063,
    "longtitude": 53.237167,
    "name": "18100",
    "country": "RU",
    "phone": " (3412) 44-11-88      ",
    "region": "Удмуртская Республика"
  },
  {
    "address": "г. Ижевск, ул. Либкнехта",
    "latitude": 56.837617,
    "longtitude": 53.201883,
    "name": "18101",
    "country": "RU",
    "phone": "(3412) 51-74-56",
    "region": "Удмуртская Республика"
  },
  {
    "address": "г. Ижевск, ул. Удмуртская, 270",
    "latitude": 56.863417,
    "longtitude": 53.223283,
    "name": "18102",
    "country": "RU",
    "phone": "(3412) 51-75-23",
    "region": "Удмуртская Республика"
  },
  {
    "address": "г. Ижевск, ул. Мельничная, 2 ",
    "latitude": 56.833755,
    "longtitude": 53.258778,
    "name": "18103",
    "country": "RU",
    "phone": "8-912-852-51-59   ",
    "region": "Удмуртская Республика"
  },
  {
    "address": "г. Ижевск, ул. Чугуевского, 11",
    "latitude": 56.834267,
    "longtitude": 53.228833,
    "name": "18105",
    "country": "RU",
    "phone": "8-912-766-1-491",
    "region": "Удмуртская Республика"
  },
  {
    "address": "п. Веретье",
    "latitude": 59.156317,
    "longtitude": 37.802583,
    "name": "18 Э",
    "country": "RU",
    "phone": "(921) 137-04-35",
    "region": "Вологодская область"
  },
  {
    "address": "Брестская обл., г. Пинск, ул. Интернациональная, 55",
    "latitude": 52.126249,
    "longtitude": 26.111323,
    "name": "19",
    "country": "BY",
    "phone": "-",
    "region": "Брестская область"
  },
  {
    "address": "г. Вологда, Окружное ш.",
    "latitude": 59.216233,
    "longtitude": 39.809933,
    "name": "19 Э",
    "country": "RU",
    "phone": "(8172) 51-57-71",
    "region": "Вологодская область"
  },
  {
    "address": "п. Фанерник, Костромской р-н, слева на выезде из г.Кострома по ул.Галичская, а/д Р-98, 3.5км от ж/д переезда",
    "latitude": 57.7859,
    "longtitude": 41.04226,
    "name": "1Д",
    "country": "RU",
    "phone": "(4942)65-17-85",
    "region": "Костромская область"
  },
  {
    "address": "г. Иваново, ул Куконковых 44",
    "latitude": 56.979467,
    "longtitude": 41.001517,
    "name": "1 НП",
    "country": "RU",
    "phone": "8 (4932) 23-39-18",
    "region": "Ивановская область"
  },
  {
    "address": "г. Минск, ул. Радиальная, д.7",
    "latitude": 53.875985,
    "longtitude": 27.65194,
    "name": "2",
    "country": "BY",
    "phone": "-",
    "region": "Минская область"
  },
  {
    "address": "Брестская обл., г. Барановичи, ул. Промышленная, 25",
    "latitude": 53.164249,
    "longtitude": 26.024816,
    "name": "20",
    "country": "BY",
    "phone": "-",
    "region": "Брестская область"
  },
  {
    "address": "Брестская обл., г. Брест, ул. Коммерческая, 34",
    "latitude": 52.13254,
    "longtitude": 23.768638,
    "name": "21",
    "country": "BY",
    "phone": "-",
    "region": "Брестская область"
  },
  {
    "address": "г. Чебоксары, Марпосадское шоссе 2",
    "latitude": 56.130045,
    "longtitude": 47.289416,
    "name": "21115",
    "country": "RU",
    "phone": "(8352) 630042",
    "region": "Республика Чувашия"
  },
  {
    "address": "г. Новочебоксарск, ул. Винокурова, д.44, напротив Автовокзала",
    "latitude": 56.109626,
    "longtitude": 47.473053,
    "name": "21116",
    "country": "RU",
    "phone": "(8352) 716898",
    "region": "Республика Чувашия"
  },
  {
    "address": "г. Чебоксары, ул. Шевченко, 8 А",
    "latitude": 56.130885,
    "longtitude": 47.241715,
    "name": "21119",
    "country": "RU",
    "phone": "(8352) 62-31-37",
    "region": "Республика Чувашия"
  },
  {
    "address": "г. Чебоксары, ул. Горького, д.18, напротив магазина \"Эльдорадо\"",
    "latitude": 56.14908,
    "longtitude": 47.18909,
    "name": "21120",
    "country": "RU",
    "phone": "(8352) 45-60-74",
    "region": "Республика Чувашия"
  },
  {
    "address": "г. Чебоксары, ул. Гладкова,13 А, рядом с  рынком  \"Ярмарка\" ",
    "latitude": 56.11132,
    "longtitude": 47.24699,
    "name": "21121",
    "country": "RU",
    "phone": "(8352) 570408",
    "region": "Республика Чувашия"
  },
  {
    "address": "г. Чебоксары. пр-т Ивана Яковлева, д.33, рядом  с  Заводом \"Керамблок\"",
    "latitude": 56.082253,
    "longtitude": 47.266789,
    "name": "21122",
    "country": "RU",
    "phone": "(8352) 529505, 8 905 347 92 55",
    "region": "Республика Чувашия"
  },
  {
    "address": "г. Новочебоксарск, ул. 10 Пятилетки, д.19",
    "latitude": 56.10578,
    "longtitude": 47.46516,
    "name": "21123",
    "country": "RU",
    "phone": "(8352) 758008",
    "region": "Республика Чувашия"
  },
  {
    "address": "Цивильский р-н,д. Нюрши, 689й км а.д.,М7,расположена при выезде с трассы Москва-Казань, в сторону д.Нюрши, справа",
    "latitude": 55.81078,
    "longtitude": 47.59277,
    "name": "21127",
    "country": "RU",
    "phone": "(83545) 4-42-81",
    "region": "Республика Чувашия"
  },
  {
    "address": "647 км трассы М7, д. Большие Карачуры, ул. Южная, д.2 А ",
    "latitude": 56.076667,
    "longtitude": 47.181967,
    "name": "21138",
    "country": "RU",
    "phone": "(8352) 507994",
    "region": "Республика Чувашия"
  },
  {
    "address": "21 км трассы Цивильск-Ульяновск, Канашский р-н, д. Кошноруй",
    "latitude": 55.680625,
    "longtitude": 47.430822,
    "name": "21150",
    "country": "RU",
    "phone": "(83533) 67-4-15",
    "region": "Республика Чувашия"
  },
  {
    "address": "660 км, д. Чиршкасы ул. Шоссейная, 1 Чебоксарский р-н ",
    "latitude": 56.007643,
    "longtitude": 47.320089,
    "name": "21152",
    "country": "RU",
    "phone": "(83540) 2-22-82",
    "region": "Республика Чувашия"
  },
  {
    "address": "115 км трассы Цивильск- Ульяновск, с. Шемурша, ул. Автовокзальная, д.2, Шемуршинский р-н ",
    "latitude": 54.886732,
    "longtitude": 47.539245,
    "name": "21153",
    "country": "RU",
    "phone": "(83546) 23139",
    "region": "Республика Чувашия"
  },
  {
    "address": "г. Канаш, ул. Железнодорожная, д.139, напротив Железнодорожного вокзала ",
    "latitude": 55.513229,
    "longtitude": 47.484173,
    "name": "21161",
    "country": "RU",
    "phone": "(83533) 2-07-94",
    "region": "Республика Чувашия"
  },
  {
    "address": "Козловский р-н, д.Старая Тюрлема, ул.Западная, 16",
    "latitude": 55.765979,
    "longtitude": 48.195327,
    "name": "21163",
    "country": "RU",
    "phone": "(83534) 2-44-29",
    "region": "Республика Чувашия"
  },
  {
    "address": "г. Шумерля, ул. Щербакова, д.66, корп. 1",
    "latitude": 55.488982,
    "longtitude": 46.426609,
    "name": "21832",
    "country": "RU",
    "phone": "8 3540 2 70 67",
    "region": "Республика Чувашия"
  },
  {
    "address": "г.Вологда, ул.Можайского, д. 1.",
    "latitude": 59.20595,
    "longtitude": 39.877283,
    "name": "21 Э",
    "country": "RU",
    "phone": "(8172) 71-56-20",
    "region": "Вологодская область"
  },
  {
    "address": "Брестская обл., г. Брест, ул. Я.Купалы, д.117",
    "latitude": 52.112998,
    "longtitude": 23.770737,
    "name": "22",
    "country": "BY",
    "phone": "-",
    "region": "Брестская область"
  },
  {
    "address": "г.Грязовец, ул. Ленина, д.178",
    "latitude": 58.858867,
    "longtitude": 40.248533,
    "name": "22 Э",
    "country": "RU",
    "phone": "(81755) 2-26-76",
    "region": "Вологодская область"
  },
  {
    "address": "Брестская обл., Дрогичинский р-н, М-10, 482-й км, 1",
    "latitude": 52.207478,
    "longtitude": 25.218225,
    "name": "23",
    "country": "BY",
    "phone": "-",
    "region": "Брестская область"
  },
  {
    "address": "64 км+800 м трассы \"Краснодар-Новороссийск\", п. Черноморский, справа при двидении от г.Краснодара ",
    "latitude": 44.86085,
    "longtitude": 38.47057,
    "name": "23001",
    "country": "RU",
    "phone": "(861) 240-94-33",
    "region": "Краснодарский край"
  },
  {
    "address": "ст. Холмская, 207км+600м а/д Павловская-Новороссийск, справа при движении от г. Новороссийск",
    "latitude": 44.8523,
    "longtitude": 38.36813,
    "name": "23002",
    "country": "RU",
    "phone": "(86150) 3-12-50",
    "region": "Краснодарский край"
  },
  {
    "address": "г. Хадыженск, ул. Туапсинская, д. 2/1",
    "latitude": 44.4349,
    "longtitude": 39.51367,
    "name": "23004",
    "country": "RU",
    "phone": "(86152) 4-13-67",
    "region": "Краснодарский край"
  },
  {
    "address": " 329 км трассы  Новороссийск - Керченский пролив, ст.Анапская, справа при движении от г. Новороссийск",
    "latitude": 44.91438,
    "longtitude": 37.40175,
    "name": "23005",
    "country": "RU",
    "phone": "8 (918) 322-58-37",
    "region": "Краснодарский край"
  },
  {
    "address": "1542 км трассы Москва-Новороссийск, 34км а/д Новороссийск-Сочи, г.Геленджик, справа при движении от  г.Джубга 80 км ",
    "latitude": 44.59647,
    "longtitude": 38.04513,
    "name": "23006",
    "country": "RU",
    "phone": "8 (86141) 2-67-03",
    "region": "Краснодарский край"
  },
  {
    "address": "г. Новороссийск, п.Цемдолина, ул. Ленина, 2, р-н развилки на Абрау-Дюрсо ",
    "latitude": 44.74401,
    "longtitude": 37.72572,
    "name": "23007",
    "country": "RU",
    "phone": "(8617) 26-10-81",
    "region": "Краснодарский край"
  },
  {
    "address": "г. Темрюк, ул. Коллонтай, южный обход ",
    "latitude": 45.26222,
    "longtitude": 37.41192,
    "name": "23008",
    "country": "RU",
    "phone": "(86148)   99-4-09",
    "region": "Краснодарский край"
  },
  {
    "address": "8 км трассы Новороссийск-Абрау-Дюрсо, п.Глебовка, справа при движении от г.Новороссийск",
    "latitude": 44.71688,
    "longtitude": 37.6489,
    "name": "23009",
    "country": "RU",
    "phone": "(8612) 66-25-04",
    "region": "Краснодарский край"
  },
  {
    "address": "г. Краснодар, ул. Калинина, 1",
    "latitude": 45.05733,
    "longtitude": 38.8926,
    "name": "23010",
    "country": "RU",
    "phone": "8(861)2281777",
    "region": "Краснодарский край"
  },
  {
    "address": "1320 км трассы Москва - Новороссийск, участок Ростов - Краснодар, Динской р-н, поворот в ст.Динская, справа при движении от г.Ростова 240 км",
    "latitude": 45.23215,
    "longtitude": 39.18468,
    "name": "23011",
    "country": "RU",
    "phone": "89189555485",
    "region": "Краснодарский край"
  },
  {
    "address": "162 км трассы Ростов-Баку, участок Ростов-Кропоткин, справа, Тихорецкий р-н, 32 км по М29 (Кавказ)",
    "latitude": 45.8841,
    "longtitude": 40.13157,
    "name": "23012",
    "country": "RU",
    "phone": "88619653487",
    "region": "Краснодарский край"
  },
  {
    "address": " трасса Темрюк-Краснодар-Кропоткин, 67км + 750 м от г.Темрюка, х. Трудобеликовский, справа при движении от г.Краснодара",
    "latitude": 45.27278,
    "longtitude": 38.18145,
    "name": "23014",
    "country": "RU",
    "phone": "(86165)  (265) 9-99-77",
    "region": "Краснодарский край"
  },
  {
    "address": "8 км+700 м трассы Темрюк-Порт-Кавказ, ст.Голубицкая, справа при движении от г.Темрюка",
    "latitude": 45.31658,
    "longtitude": 37.2938,
    "name": "23015",
    "country": "RU",
    "phone": "(86148) (248) 6-39-01",
    "region": "Краснодарский край"
  },
  {
    "address": "Краснодар, угол ул.Ростовское ш. и ул. Пригородной, на выезде из г. Краснодар в г. Ростов на Дону, справа от г.Краснодара",
    "latitude": 45.1214,
    "longtitude": 39.00205,
    "name": "23017",
    "country": "RU",
    "phone": "8 (861) 228-63-18",
    "region": "Краснодарский край"
  },
  {
    "address": "г. Краснодар,  Карасунский округ, ул. Фадеева, 431, (справа при движении из аэропорта) ",
    "latitude": 45.0331,
    "longtitude": 39.13423,
    "name": "23018",
    "country": "RU",
    "phone": "(861) 240-91-07",
    "region": "Краснодарский край"
  },
  {
    "address": "г. Анапа, Анапское ш.,10, въезд в г.Анапу со стороны г.Новороссийска",
    "latitude": 44.89857,
    "longtitude": 37.34702,
    "name": "23019",
    "country": "RU",
    "phone": "8 (86133) 3-19-48",
    "region": "Краснодарский край"
  },
  {
    "address": "г. Горячий ключ, ул. Революции, 4а, р-н моста",
    "latitude": 44.63665,
    "longtitude": 39.13382,
    "name": "23020",
    "country": "RU",
    "phone": "(86159) 4-42-51",
    "region": "Краснодарский край"
  },
  {
    "address": "г. Крымск, ул.Маршала Жукова, автоколонна 21",
    "latitude": 44.93522,
    "longtitude": 38.01195,
    "name": "23021",
    "country": "RU",
    "phone": "8 (988) 523-38-62",
    "region": "Краснодарский край"
  },
  {
    "address": "36 км + 600 м трассы Стародеревянковская-Ленинградская-Кисляковская , перед ст. Ленинградская ",
    "latitude": 46.30633,
    "longtitude": 39.36155,
    "name": "23022",
    "country": "RU",
    "phone": "88614570022",
    "region": "Краснодарский край"
  },
  {
    "address": "г. Армавир, пересечение улиц Ефремова и Каспарова, при выезде из г.Армавир на трассу Ростов-Махачкала, справа по ходу движения",
    "latitude": 44.979,
    "longtitude": 41.07458,
    "name": "23029",
    "country": "RU",
    "phone": "88613754225",
    "region": "Краснодарский край"
  },
  {
    "address": "273 км тр. Ростов-Баку, участок Кропоткин-Армавир, п.Федоровский, Новокубанский р-н, справа при движении от г.Армавира, 143 км тр. М29 (Кавказ); ",
    "latitude": 45.09468,
    "longtitude": 40.95298,
    "name": "23036",
    "country": "RU",
    "phone": "918-488-4535             88619536793",
    "region": "Краснодарский край"
  },
  {
    "address": "г. Сочи, Лазаревский р-н, п. Дагомыс, ул. Батумское шоссе 34а, трасса \"Джубга-Сочи\", на выезде из Дагомыса в Сочи",
    "latitude": 43.66162,
    "longtitude": 39.67297,
    "name": "23037",
    "country": "RU",
    "phone": "(8622) 52-37-88",
    "region": "Краснодарский край"
  },
  {
    "address": "г. Краснодар, ул. Дзержинского, 94",
    "latitude": 45.09577,
    "longtitude": 38.97927,
    "name": "23038",
    "country": "RU",
    "phone": "(8612) 58-34-13",
    "region": "Краснодарский край"
  },
  {
    "address": "трасса Темрюк - Краснодар - Кропоткин, 158 км от г.Темрюка, на въезде в г.Краснодар со стороны г.Кропоткин, справа при движении от г.Кропоткин 130 км",
    "latitude": 45.00903,
    "longtitude": 39.12197,
    "name": "23039",
    "country": "RU",
    "phone": "8 (918) 438-82-27",
    "region": "Краснодарский край"
  },
  {
    "address": "1199 км трассы Москва-Новороссийск, участок Ростов-Краснодар, 700 м от ст. Павловская, справа при движении от г.Краснодара, 135 км от г.Ростова",
    "latitude": 46.11028,
    "longtitude": 39.82995,
    "name": "23040",
    "country": "RU",
    "phone": "88619153808",
    "region": "Краснодарский край"
  },
  {
    "address": "ст. Брюховецкая, ул. Олега Кошевого ",
    "latitude": 45.77803,
    "longtitude": 38.99113,
    "name": "23041",
    "country": "RU",
    "phone": "88615620400",
    "region": "Краснодарский край"
  },
  {
    "address": "1231 км трассы Москва-Новороссийск, участок Ростов-Краснодар, ст. Ирклиевская + 600 м, справа при движении от г.Ростова, 170 км",
    "latitude": 45.8487,
    "longtitude": 39.68158,
    "name": "23042",
    "country": "RU",
    "phone": "88612405016",
    "region": "Краснодарский край"
  },
  {
    "address": "1280 км трассы Москва-Новороссийск, участок Ростов-Краснодар, г.Кореновск+700 м, справа при движении от г.Краснодара, 210 км от г.Ростова ",
    "latitude": 45.46892,
    "longtitude": 39.39555,
    "name": "23043",
    "country": "RU",
    "phone": "88614249988",
    "region": "Краснодарский край"
  },
  {
    "address": "1405 км трассы Москва-Новороссийск, участок Краснодар-Джубга, 64 км от г.Краснодара, справа, перед развилкой на г.Горячий ключ",
    "latitude": 44.65148,
    "longtitude": 39.15273,
    "name": "23044",
    "country": "RU",
    "phone": "88615934325",
    "region": "Краснодарский край"
  },
  {
    "address": "трасса Краснодар - Джубга, 64 км от Краснодара, слева по ходу движения, перед развилкой на г. Горячий ключ, напротив АЗС №44 и севиснного центра \"Мерседес\"",
    "latitude": 44.6514,
    "longtitude": 39.1507,
    "name": "23045",
    "country": "RU",
    "phone": "8 (861) 240-90-37",
    "region": "Краснодарский край"
  },
  {
    "address": "ст. Саратовская, ул. Шоссейная, 2",
    "latitude": 44.70678,
    "longtitude": 39.22937,
    "name": "23046",
    "country": "RU",
    "phone": "(861) 246-25-07",
    "region": "Краснодарский край"
  },
  {
    "address": "г. Тимашевск ул. Гибридная, 3 А",
    "latitude": 45.63742,
    "longtitude": 38.93788,
    "name": "23047",
    "country": "RU",
    "phone": "88613090756",
    "region": "Краснодарский край"
  },
  {
    "address": "Лабинский р-н, пгт. Мостовской, ул. Аэродромная, 1 Б ",
    "latitude": 44.395,
    "longtitude": 40.8145,
    "name": "23048",
    "country": "RU",
    "phone": "(86192) 5-32-00",
    "region": "Краснодарский край"
  },
  {
    "address": "г. Новороссийск, пересечение пр-та Дзержинского и ул.Хворостянского",
    "latitude": 44.68092,
    "longtitude": 37.77947,
    "name": "23049",
    "country": "RU",
    "phone": "(8617) 61-65-41",
    "region": "Краснодарский край"
  },
  {
    "address": "г. Краснодар, ул. Ставропольская, 2/1 ",
    "latitude": 45.01332,
    "longtitude": 38.98188,
    "name": "23050",
    "country": "RU",
    "phone": "(8612) 13-40-09",
    "region": "Краснодарский край"
  },
  {
    "address": "г. Апшеронск, ул. Ворошилова, 280",
    "latitude": 44.44143,
    "longtitude": 39.7681,
    "name": "23051",
    "country": "RU",
    "phone": "8 (86152) 2-79-14",
    "region": "Краснодарский край"
  },
  {
    "address": "г. Белореченск, ул. Свердлова, 323",
    "latitude": 44.75405,
    "longtitude": 39.89313,
    "name": "23052",
    "country": "RU",
    "phone": "(86155) 3-16-70",
    "region": "Краснодарский край"
  },
  {
    "address": "125 км трассы Ростов-Баку, участок Павловская-Кропоткин Тихорецкий р-н, ст. Юго-Северная, слева при движении от ст.Павловской 49 км+550 м по трассы  М29 (Кавказ)",
    "latitude": 45.7657,
    "longtitude": 40.2423,
    "name": "23053",
    "country": "RU",
    "phone": "88619643698",
    "region": "Краснодарский край"
  },
  {
    "address": "трасса Темрюк - Краснодар - Кропоткин обход в  6 км справа, ст. Полтавская",
    "latitude": 45.32857,
    "longtitude": 38.23699,
    "name": "23054",
    "country": "RU",
    "phone": "8 (861) 240-50-33",
    "region": "Краснодарский край"
  },
  {
    "address": "г. Тимашевск, кольцевое пересечение трассы Краснодар - Ейск",
    "latitude": 45.6008,
    "longtitude": 38.9587,
    "name": "23055",
    "country": "RU",
    "phone": "88613077220",
    "region": "Краснодарский край"
  },
  {
    "address": "г. Краснодар,  Ростовское ш.,3",
    "latitude": 45.06353,
    "longtitude": 38.98537,
    "name": "23056",
    "country": "RU",
    "phone": "88612409204",
    "region": "Краснодарский край"
  },
  {
    "address": "г. Краснодар, угол ул.Сормовской и ул. Старокубанской; ",
    "latitude": 45.02245,
    "longtitude": 39.04935,
    "name": "23057",
    "country": "RU",
    "phone": "8 (861) 992-08-06",
    "region": "Краснодарский край"
  },
  {
    "address": "г. Краснодар, Сормовская, 4",
    "latitude": 45.02333,
    "longtitude": 39.06083,
    "name": "23058",
    "country": "RU",
    "phone": "(861) 240-91-08",
    "region": "Краснодарский край"
  },
  {
    "address": "г. Сочи, Адлерский р-н, ул. Старонасыпная 34/12",
    "latitude": 43.42803,
    "longtitude": 39.93003,
    "name": "23059",
    "country": "RU",
    "phone": "(8622) 40-02-49",
    "region": "Краснодарский край"
  },
  {
    "address": "г. Славянск-на-Кубани, ул. Пролетарская",
    "latitude": 45.24688,
    "longtitude": 38.102,
    "name": "23064",
    "country": "RU",
    "phone": "8 (86146) 7-86-21",
    "region": "Краснодарский край"
  },
  {
    "address": "20,5 км трассы М25, от начала трассы. АЗС расположена справа не доезжая ст. Старотиторовской 500 м.",
    "latitude": 45.19385,
    "longtitude": 37.16285,
    "name": "23070",
    "country": "RU",
    "phone": "8 (86148) 9-19-55",
    "region": "Краснодарский край"
  },
  {
    "address": "Калининский р-н, ст.Калининская, а/д Тимашевск - Славянск-на-Кубани 26 + 500 км",
    "latitude": 45.46508,
    "longtitude": 38.69842,
    "name": "23096",
    "country": "RU",
    "phone": "8(918) 448-14-12 ",
    "region": "Краснодарский край"
  },
  {
    "address": "г.Апшеронск, ул Партизанская 21а",
    "latitude": 44.46538,
    "longtitude": 39.72937,
    "name": "23104",
    "country": "RU",
    "phone": "8(86152)29004",
    "region": "Краснодарский край"
  },
  {
    "address": "г. Апшеронск, ул. Исполкомовская, 193",
    "latitude": 44.48638,
    "longtitude": 39.71978,
    "name": "23105",
    "country": "RU",
    "phone": "8 (86152) 2-78-59",
    "region": "Краснодарский край"
  },
  {
    "address": "п. Белозерный, по трассе Краснодар-Славяск-на-Кубани",
    "latitude": 45.07393,
    "longtitude": 38.71625,
    "name": "23108",
    "country": "RU",
    "phone": "(861) 240-05-51",
    "region": "Краснодарский край"
  },
  {
    "address": "г. Новороссийск, ул. Сухумское ш., 64 Б",
    "latitude": 44.73222,
    "longtitude": 37.80967,
    "name": "23110",
    "country": "RU",
    "phone": "(8617) 27-77-89",
    "region": "Краснодарский край"
  },
  {
    "address": "г. Апшеронск, ул. Пролетарская, 181",
    "latitude": 44.44167,
    "longtitude": 39.71473,
    "name": "23112",
    "country": "RU",
    "phone": "8 (86152) 2-78-38",
    "region": "Краснодарский край"
  },
  {
    "address": "ст. Каневская, объездная дорога",
    "latitude": 46.05627,
    "longtitude": 38.99968,
    "name": "23113",
    "country": "RU",
    "phone": "88616473850",
    "region": "Краснодарский край"
  },
  {
    "address": "ст. Елизаватенская, ул.Степная, 421",
    "latitude": 45.05105,
    "longtitude": 38.82237,
    "name": "23115",
    "country": "RU",
    "phone": "88612409228",
    "region": "Краснодарский край"
  },
  {
    "address": "станица Кущёвская, ул. Пушкина, 214",
    "latitude": 46.54109,
    "longtitude": 39.62243,
    "name": "23118",
    "country": "RU",
    "phone": "918-247-53-44",
    "region": "Краснодарский край"
  },
  {
    "address": "г. Краснодар ул. Автолюбителей, 32",
    "latitude": 45.00505,
    "longtitude": 39.06815,
    "name": "23119",
    "country": "RU",
    "phone": "(861) 240-91-06",
    "region": "Краснодарский край"
  },